name,id,parent_id,elevation,latitude,longitude
Colorado,105708956,,"5,280",39.996, -105.298
10 Mile Canyon,106817352,105708956.0,"9,200",39.556, -106.132
10 Mile Tower,119784144,106817352.0,"9,301",39.57, -106.12
Brick Wall/Alcoves,119747707,106817352.0,"9,321",39.566, -106.126
The Alcoves,119747800,119747707.0,"9,331",39.567, -106.126
Brick Wall,119747726,119747707.0,"9,273",39.566, -106.126
The Cache Wall,112221833,106817352.0,"9,471",39.561, -106.132
The Diamond /Officer's Wall Massif,117387473,106817352.0,"9,995",39.538, -106.138
The Diamond Wall,106817410,117387473.0,"9,200",39.538, -106.138
Officer's Wall,108256713,117387473.0,"10,032",39.538, -106.138
The Dome,107938625,106817352.0,"9,500",39.571, -106.118
Halfway Rock,107751804,106817352.0,"10,060",39.539, -106.136
Mount Royal (near Frisco),106811705,106817352.0,"10,500",39.572, -106.111
Officer's Gulch West,107761942,106817352.0,"9,896",39.53, -106.141
The Shire,107211983,106817352.0,"9,333",39.572, -106.117
Sunshine Buttess (aka Wichita Wall),107748246,106817352.0,"10,500",39.571, -106.118
"Sunshine, Ding Dong Dome Bouldering",119014525,106817352.0,"9,184",39.57, -106.117
Caveman Boulder,119014547,119014525.0,"9,191",39.57, -106.117
Teeter Top,119747913,106817352.0,"9,543",39.568, -106.126
Wheeler Lakes,119346112,106817352.0,"11,085",39.521, -106.168
White Cliff,106869718,106817352.0,"9,500",39.568, -106.123
Alpine Rock,105744466,105708956.0,"12,146",40.257, -105.657
Capitol Peak,105746266,105744466.0,"14,130",39.15, -107.082
Chimneys of Treasure,105846369,105744466.0,"12,820",39.028, -107.117
The Citadel,107952001,105744466.0,"13,294",39.715, -105.911
Frasco's Toe,108625707,105744466.0,"12,600",39.129, -106.506
Gore Mountain Range,106753366,105744466.0,"10,000",39.693, -106.273
Buffalo Mountain,106639569,106753366.0,"12,770",39.618, -106.142
Eagle's Nest,109376503,106753366.0,"13,432",39.774, -106.35
East Partner Peak (aka Peak V),107747316,106753366.0,"13,057",39.693, -106.273
Mount Silverthorne,111123442,106753366.0,"13,357",39.654, -106.189
Peak C,107841242,106753366.0,"13,220",39.75, -106.337
Peak L,111600093,106753366.0,"13,213",39.742, -106.279
"Peaks X, Y, and Z",112031651,106753366.0,"13,100",39.706, -106.259
Sakkety Point,117559999,106753366.0,"8,967",40.154, -106.552
"Valhalla Peak, Freya Tower",112221941,106753366.0,"12,121",39.666, -106.206
"Valhalla Peak, Thor Tower",108214910,106753366.0,,39.693, -106.273
West Partner Peak,107657678,106753366.0,,39.693, -106.273
Grizzly Peak,105746644,105744466.0,"13,998",39.043, -106.597
Holy Cross Wilderness,111610593,105744466.0,"13,000",39.429, -106.509
Fool's Peak,112463302,111610593.0,"12,947",39.451, -106.6
Gold Dust Peak,112463342,111610593.0,"13,365",39.479, -106.595
The Underworld,113578767,111610593.0,"12,559",39.471, -106.467
Indian Peaks,105802014,105744466.0,"12,462",40.05, -105.64
"""Ooh La La!""",105746817,105802014.0,"12,945",40.162, -105.668
Apache Peak,105745995,105802014.0,"13,441",40.058, -105.651
Arapahoe Peaks,105745963,105802014.0,"13,502",40.027, -105.649
Devil's Moles,113274997,105802014.0,"11,200",39.974, -105.673
Devil's Thumb,105746829,105802014.0,"12,100",39.978, -105.685
Elk Tooth,105746811,105802014.0,"12,848",40.168, -105.655
Haimovi Tower,105746403,105802014.0,"12,395",40.158, -105.696
Indian Peaks Traverses,114960525,105802014.0,"10,497",40.084, -105.581
Iroquois Peak,119480893,105802014.0,"11,791",40.067, -105.661
James Peak,105745055,105802014.0,"13,294",39.852, -105.689
Lake Isabelle,119724050,105802014.0,"10,909",40.069, -105.619
Lunchtime Boulder,119724094,119724050.0,"10,836",40.07, -105.612
Lone Eagle Peak,105746826,105802014.0,"11,920",40.071, -105.66
Mount Neva,105746397,105802014.0,"12,814",40.007, -105.688
Mount Toll,105746167,105802014.0,"12,979",40.088, -105.633
Mt. Audubon,105815230,105802014.0,"13,223",40.099, -105.616
Navajo Peak,105746022,105802014.0,"13,409",40.054, -105.646
Ogalalla Peak,105746814,105802014.0,"13,138",40.17, -105.666
Paiute Peak,106454047,105802014.0,"13,088",40.098, -105.633
"Peak 12,878",111173972,105802014.0,"12,878",40.05, -105.64
Roaring Fork Boulders,112078297,105802014.0,"9,000",40.137, -105.76
Hawaii Boulder,112078307,112078297.0,"8,900",40.136, -105.762
Three Finger Boulder,112092611,112078297.0,"9,298",40.137, -105.759
Sawtooth Mountain,113171667,105802014.0,"12,304",40.127, -105.625
Shoshoni Peak,106011962,105802014.0,"12,952",40.067, -105.639
Stone Lake Boulders,105859305,105802014.0,"10,600",40.05, -105.64
Swissco (bouldering),119382326,105802014.0,"10,908",39.823, -105.696
Main Area,119382368,119382326.0,"11,453",39.826, -105.703
Boulder #1,119382380,119382368.0,"11,382",39.826, -105.702
Boulder #2,119382396,119382368.0,"11,427",39.827, -105.703
Boulder #3,119382435,119382368.0,"11,482",39.826, -105.703
The Pinnacle,119382558,119382368.0,"11,487",39.826, -105.704
The Terrace,119382617,119382326.0,"11,980",39.824, -105.704
Break It Boulder,119382632,119382617.0,"11,736",39.825, -105.704
La Plata,105746039,105744466.0,"14,361",39.029, -106.473
Long / Multi-area Traverses,119476796,105744466.0,"10,960",39.972, -105.672
Maroon Bells,105746221,105744466.0,"14,156",39.071, -106.989
Mount of the Holy Cross,105746545,105744466.0,"14,005",39.468, -106.479
Mt. Bierstadt,113098779,105744466.0,"14,006",39.583, -105.669
East Ridge,113098789,113098779.0,"13,514",39.579, -105.66
Southwest Face,113098837,113098789.0,"13,163",39.578, -105.659
Frozen Lake Basin,113308119,113098779.0,"12,847",39.578, -105.664
Frozen Lake,113308228,113308119.0,"12,962",39.578, -105.668
Open Books,113308166,113308119.0,"12,556",39.576, -105.662
Slab,113308282,113308119.0,"12,796",39.576, -105.663
Southeast Face,115192752,113098779.0,"12,114",39.572, -105.65
Mt. Evans,105744358,105744466.0,"14,264",39.589, -105.643
Abyss Lake Basin,114552973,105744358.0,"12,034",39.57, -105.649
Mount Evans Side,114553029,114552973.0,"12,338",39.574, -105.641
Casual Delight Buttress,114553182,114553029.0,"12,745",39.574, -105.639
Corner Buttress,114581280,114553029.0,"12,901",39.573, -105.637
The Girlfriend Wall,114553049,114553029.0,"12,826",39.575, -105.639
Wind Tower,114581157,114553029.0,"12,867",39.572, -105.637
The Alpine Lite Cliffs,107696359,105744358.0,"11,600",36.613, -105.631
Easter Island,110974950,107696359.0,"12,410",39.612, -105.63
Innuendo Spire,107696403,107696359.0,"11,800",36.613, -105.631
Junk Show Pinnacle,113242969,107696359.0,"12,000",39.613, -105.63
Main Wall,107961143,107696359.0,,36.613, -105.631
The Aprons,105745711,105744358.0,"13,518",39.592, -105.65
The Black Wall,105745699,105744358.0,"13,156",39.606, -105.654
Chicago Creek Rock,105746277,105744358.0,,39.589, -105.643
Geneva Creek Crag,110140340,105744358.0,"10,000",39.589, -105.643
Lincoln Lake Slabs,106199323,105744358.0,"12,500",39.618, -105.606
"Mount Evans, North Face",107098513,105744358.0,"14,264",39.589, -105.645
Mt. Evans Bouldering,106497694,105744358.0,"10,616",39.66, -105.605
Area A,106497714,106497694.0,"10,929",39.633, -105.621
Bierstadt Area,106497723,106497714.0,"11,000",39.633, -105.621
The Dali Area,106497877,106497714.0,"11,100",39.631, -105.621
French Kiss Area,106812275,106497714.0,"11,127",39.632, -105.62
Seurat Area,106497849,106497714.0,"11,000",39.632, -105.622
Gateway Boulder,106581073,106497694.0,"10,800",39.7, -105.206
Hell's Hole,114581375,106497694.0,"11,315",39.628, -105.674
Laying In Wait Boulder,107857038,106497694.0,,39.66, -105.605
Lincoln Lake,107216894,106497694.0,"11,726",39.618, -105.603
Roadside Sector,112003380,106497694.0,"10,800",39.647, -105.616
Roadside Boulder,112003432,112003380.0,"10,548",39.647, -105.616
Warm Up Boulder,112003402,112003380.0,"10,519",39.647, -105.616
Old Goat Wall,118055721,105744358.0,"12,361",39.575, -105.614
Possibility Area,117652219,105744358.0,"11,723",39.632, -105.617
Little Possibility Wall,117652256,117652219.0,"11,536",39.633, -105.618
Possibility Slab,117652337,117652219.0,"11,607",39.632, -105.618
Possibility Wall,117652237,117652219.0,"11,792",39.631, -105.618
Summit Lake Couloirs,105746337,105744358.0,"13,874",39.589, -105.646
The Tan Buttresses,106226367,105744358.0,"12,677",39.611, -105.652
West Buttress,105746647,105744358.0,,39.589, -105.649
Northstar Mountain,119735324,105744466.0,"13,296",39.377, -106.099
Mind Dump,119685176,119735324.0,"11,186",39.381, -106.078
Pettingell Peak,114612355,105744466.0,"13,514",39.729, -105.905
Pyramid Peak,105746680,105744466.0,"14,018",39.071, -106.95
Quandary Peak,105745307,105744466.0,"14,265",39.397, -106.106
RMNP - Rock,105744460,105744466.0,"8,524",40.375, -105.616
Aiguille de Fleur,107303626,105744460.0,"11,940",40.215, -105.704
Alberta Falls Wall,107701839,105744460.0,,40.375, -105.616
Cathedral Wall,105745358,105744460.0,,40.287, -105.668
Fairchild Mountain,107782891,105744460.0,"13,502",40.468, -105.664
Fern Canyon Rocks,105744838,105744460.0,"8,794",40.352, -105.657
Before Rock of Ages,115131373,105744838.0,"8,427",40.354, -105.643
The Lost World,105848733,105744838.0,"9,000",40.352, -105.657
Rock Of Ages,105746122,105744838.0,"8,751",40.352, -105.654
Flattop Mountain,110636302,105744460.0,"12,324",40.375, -105.616
The Foil,105745666,105744460.0,,40.375, -105.616
The Gable,107805966,105744460.0,,40.375, -105.616
Glacier Gorge,106575635,105744460.0,"10,638",40.266, -105.641
A Walk in The Park,106563883,106575635.0,,40.266, -105.641
Arrowhead,105745588,106575635.0,"12,642",40.268, -105.65
Chiefshead,107088643,106575635.0,"13,579",40.249, -105.641
Chiefshead Northeast Face,105744911,106575635.0,"13,579",40.249, -105.641
Chiefshead Northwest Face,105745983,106575635.0,"13,579",40.249, -105.641
Half Mountain,107446898,106575635.0,,40.266, -105.641
"Astro Tower & Group Half Mt., Glacier Gorge, RMNP",107446444,107446898.0,"11,482",40.266, -105.641
McHenry's Peak,105746304,106575635.0,"13,327",40.263, -105.657
Pagoda Mountain,105838845,106575635.0,"13,497",40.249, -105.627
Rain Delay Crag,111990512,106575635.0,"11,400",40.259, -105.631
Shameless Tower,117369215,106575635.0,"12,440",40.264, -105.656
Shelf Cirque,107102678,106575635.0,"11,500",40.273, -105.648
Spearhead,105744832,106575635.0,"12,575",40.257, -105.638
The Golden Shower Wall,106865559,105744460.0,,40.283, -105.673
Hallett Peak,105744829,105744460.0,"12,713",40.303, -105.686
Hayden Spires,106497214,105744460.0,"11,600",40.375, -105.616
Isolation Peak,117743503,105744460.0,"12,860",40.203, -105.677
Little Matterhorn,105746844,105744460.0,,40.375, -105.616
Long's Peak,105857350,105744460.0,"14,256",40.255, -105.616
Chasm View Wall,105857377,105857350.0,"13,000",40.258, -105.615
The Diamond,105744826,105857350.0,"14,255",40.256, -105.614
Keyboard of the Winds,105857388,105857350.0,"13,600",40.249, -105.619
Lower East Face,105857372,105857350.0,"13,500",40.256, -105.612
North Face/Ridge,105857391,105857350.0,"14,256",40.259, -105.619
Palisades,105857381,105857350.0,"14,000",40.253, -105.615
Ship's Prow,105746080,105857350.0,"12,800",40.254, -105.605
Upper East Face,105857359,105857350.0,"14,000",40.254, -105.612
West Face,105746227,105857350.0,"14,255",40.255, -105.615
Lost Meadow Crags,107883478,105744460.0,"10,800",40.509, -105.582
Forgotten Wall,107883526,107883478.0,"10,883",40.509, -105.581
Forsaken Tower,107883545,107883478.0,"10,956",40.509, -105.582
Shield of Dreams,107883502,107883478.0,"10,879",40.509, -105.582
Mount Julian,107035054,105744460.0,"12,928",40.371, -105.758
Mt. Alice,105746042,105744460.0,"13,310",40.239, -105.663
Mt. Meeker,105745130,105744460.0,"13,911",40.249, -105.604
Notchtop,105744835,105744460.0,"12,129",40.319, -105.694
Otis Peak,106876239,105744460.0,"11,000",40.292, -105.681
Cosmo,106897218,106876239.0,,40.292, -105.681
Fire Tower,106891466,106876239.0,,40.292, -105.681
Forgotten Spire,111028758,106876239.0,,40.292, -105.681
Hidden Spire,111028755,106876239.0,,40.292, -105.681
Otis Flower Tower,105844471,106876239.0,,40.292, -105.681
Otis Power Tower  (known in the new Haas book as The Momento),106885637,106876239.0,"12,452",40.292, -105.681
Piton Spire,106878445,106876239.0,,40.292, -105.681
The Solar Wall,105844230,106876239.0,"11,000",40.292, -105.681
Thrill Tower,111028751,106876239.0,,40.292, -105.681
Wham,105746010,106876239.0,,40.292, -105.681
Zowie,105745459,106876239.0,,40.292, -105.67
The Penknife,105837076,105744460.0,"12,000",40.284, -105.679
Petit Grepon,105745980,105744460.0,"11,711",40.28, -105.673
Pilot Mtn.,108324393,105744460.0,"12,200",40.23, -105.658
Powell Peak,105746051,105744460.0,"13,208",40.266, -105.664
Ptarmigan Towers,105746301,105744460.0,,40.375, -105.616
RMNP Bouldering Areas,106286416,105744460.0,"9,446",40.312, -105.645
Chaos Canyon Bouldering,106286420,106286416.0,"10,265",40.305, -105.665
Lower Chaos Canyon,106291581,106286420.0,"10,195",40.305, -105.661
50-50 Boulder,114420292,106291581.0,"10,213",40.304, -105.661
The Automator Boulder,106293956,106291581.0,,40.305, -105.661
Bush Pilot Boulder,106291601,106291581.0,,40.305, -105.66
Bushpilot Warm Up Boulder,109380032,106291581.0,,40.305, -105.66
Centaur Boulder,106291588,106291581.0,,40.305, -105.66
Deep Puddle Dynamics,106476130,106291581.0,"10,220",40.305, -105.661
European Human Being Boulder,106807752,106291581.0,,40.305, -105.661
Geeks of the Industry Boulder,106842178,106291581.0,,40.305, -105.66
The Gobot Boulder,106293949,106291581.0,,40.305, -105.661
Gobot warmups,106581501,106291581.0,,40.305, -105.661
Green Slab Wall,106835107,106291581.0,,40.305, -105.661
Little Orb,109380000,106291581.0,,40.305, -105.661
Outcast,111217554,106291581.0,"10,487",40.302, -105.668
The Potato Chip Boulder,106501338,106291581.0,,40.305, -105.659
Revenge Area,106291614,106291581.0,,40.305, -105.661
Skyscraper Boulder,106627218,106291581.0,"9,500",40.305, -105.661
The Unnamable,109380055,106291581.0,,40.305, -105.661
Warm-Up Boulder,106291621,106291581.0,,40.305, -105.661
Upper Chaos Canyon,106286424,106286420.0,"10,697",40.304, -105.67
Baby Otech Boulder,109365627,106286424.0,,40.304, -105.67
Battlebug Boulder,119557186,106286424.0,"10,448",40.303, -105.667
"Brimstone Area (i.e., lower upper)",109348324,106286424.0,,40.304, -105.67
Creme Fraiche Boulder,109322892,106286424.0,,40.304, -105.67
Dividing Line Area,109338241,106286424.0,,40.304, -105.67
El Jorge Boulder,106821524,106286424.0,"11,000",40.304, -105.67
The Example,109474830,106286424.0,,40.304, -105.67
The Fuzz Boulder,109473935,106286424.0,,40.304, -105.67
Golden Rows of Flows Boulder,106821536,106286424.0,"11,000",40.304, -105.67
Green 45 Area,106843385,106286424.0,"11,000",40.304, -105.67
Green 45 Boulder,106843388,106843385.0,"11,000",40.304, -105.67
Riddles Boulder,106499808,106286424.0,"9,500",40.304, -105.67
Skipper Roof,106821544,106286424.0,"11,000",40.304, -105.67
Terror Boulder,109322934,106286424.0,,40.304, -105.67
Travesse Roof,113417781,106286424.0,"10,787",40.304, -105.67
Windy in a Basket Boulder,119669783,106286424.0,"10,465",40.304, -105.667
KB Boulder - Hollowell Park,105746373,106286416.0,,40.312, -105.645
RMNP Bouldering Miscellaneous Areas,106286439,106286416.0,"9,752",40.331, -105.642
Bear Lake,117521260,106286439.0,"9,502",40.313, -105.648
Fern Lake,113588159,106286439.0,"9,507",40.337, -105.677
Lone Star,106500098,106286439.0,"9,478",40.306, -105.643
Moraine Park Boulders (aka Fern Lake Trail/The Pool/Arch Rocks),106784478,106286439.0,"8,500",40.312, -105.645
Hanging Arete Boulders,110268742,106784478.0,"8,134",40.355, -105.631
Trailside Boulder,118115033,106784478.0,"8,280",40.352, -105.647
Unknown Boulder,106784488,106784478.0,"8,500",40.312, -105.645
Warm-Up Boulder,112002422,106784478.0,"8,558",40.353, -105.648
Veritas,106481278,106286439.0,,40.331, -105.642
The Suzuki Boulder,106385805,106286416.0,,40.371, -105.588
Tyndall Gorge,106286436,106286416.0,,40.312, -105.645
Emerald Lake,106443049,106286436.0,,40.309, -105.665
The Saber,105745600,105744460.0,"11,856",40.282, -105.674
The Seldom Seen Wall,106805057,105744460.0,"12,206",40.278, -105.679
Sharkstooth,105745133,105744460.0,"12,630",40.281, -105.674
Snowdrift Buttress,106010173,105744460.0,"11,360",40.375, -105.616
The Stiletto,108195879,105744460.0,,40.375, -105.616
Taylor Peak,105746004,105744460.0,"13,153",40.274, -105.68
Thatchtop Mountain,110949921,105744460.0,"10,200",40.288, -105.657
North Face,110952380,110949921.0,"10,200",40.288, -105.657
Thumb Rock,105746653,105744460.0,,40.375, -105.616
Tyndall Gorge,105745564,105744460.0,,40.375, -105.616
Wild Basin (bouldering),110544801,105744460.0,"8,300",40.208, -105.567
Boxcar Boulder,114971067,110544801.0,"8,400",40.214, -105.551
Left Side of the River,110892984,110544801.0,,40.208, -105.567
Main Area,110556740,110544801.0,"8,746",40.203, -105.578
Colorado,105708956,,"5,280",39.996, -105.298
10 Mile Canyon,106817352,105708956.0,"9,200",39.556, -106.132
10 Mile Tower,119784144,106817352.0,"9,301",39.57, -106.12
Brick Wall/Alcoves,119747707,106817352.0,"9,321",39.566, -106.126
The Alcoves,119747800,119747707.0,"9,331",39.567, -106.126
Brick Wall,119747726,119747707.0,"9,273",39.566, -106.126
The Cache Wall,112221833,106817352.0,"9,471",39.561, -106.132
The Diamond /Officer's Wall Massif,117387473,106817352.0,"9,995",39.538, -106.138
The Diamond Wall,106817410,117387473.0,"9,200",39.538, -106.138
Officer's Wall,108256713,117387473.0,"10,032",39.538, -106.138
The Dome,107938625,106817352.0,"9,500",39.571, -106.118
Halfway Rock,107751804,106817352.0,"10,060",39.539, -106.136
Mount Royal (near Frisco),106811705,106817352.0,"10,500",39.572, -106.111
Officer's Gulch West,107761942,106817352.0,"9,896",39.53, -106.141
The Shire,107211983,106817352.0,"9,333",39.572, -106.117
Sunshine Buttess (aka Wichita Wall),107748246,106817352.0,"10,500",39.571, -106.118
"Sunshine, Ding Dong Dome Bouldering",119014525,106817352.0,"9,184",39.57, -106.117
Caveman Boulder,119014547,119014525.0,"9,191",39.57, -106.117
Teeter Top,119747913,106817352.0,"9,543",39.568, -106.126
Wheeler Lakes,119346112,106817352.0,"11,085",39.521, -106.168
White Cliff,106869718,106817352.0,"9,500",39.568, -106.123
Alpine Rock,105744466,105708956.0,"12,146",40.257, -105.657
Capitol Peak,105746266,105744466.0,"14,130",39.15, -107.082
Chimneys of Treasure,105846369,105744466.0,"12,820",39.028, -107.117
The Citadel,107952001,105744466.0,"13,294",39.715, -105.911
Frasco's Toe,108625707,105744466.0,"12,600",39.129, -106.506
Gore Mountain Range,106753366,105744466.0,"10,000",39.693, -106.273
Buffalo Mountain,106639569,106753366.0,"12,770",39.618, -106.142
Eagle's Nest,109376503,106753366.0,"13,432",39.774, -106.35
East Partner Peak (aka Peak V),107747316,106753366.0,"13,057",39.693, -106.273
Mount Silverthorne,111123442,106753366.0,"13,357",39.654, -106.189
Peak C,107841242,106753366.0,"13,220",39.75, -106.337
Peak L,111600093,106753366.0,"13,213",39.742, -106.279
"Peaks X, Y, and Z",112031651,106753366.0,"13,100",39.706, -106.259
Sakkety Point,117559999,106753366.0,"8,967",40.154, -106.552
"Valhalla Peak, Freya Tower",112221941,106753366.0,"12,121",39.666, -106.206
"Valhalla Peak, Thor Tower",108214910,106753366.0,,39.693, -106.273
West Partner Peak,107657678,106753366.0,,39.693, -106.273
Grizzly Peak,105746644,105744466.0,"13,998",39.043, -106.597
Holy Cross Wilderness,111610593,105744466.0,"13,000",39.429, -106.509
Fool's Peak,112463302,111610593.0,"12,947",39.451, -106.6
Gold Dust Peak,112463342,111610593.0,"13,365",39.479, -106.595
The Underworld,113578767,111610593.0,"12,559",39.471, -106.467
Indian Peaks,105802014,105744466.0,"12,462",40.05, -105.64
"""Ooh La La!""",105746817,105802014.0,"12,945",40.162, -105.668
Apache Peak,105745995,105802014.0,"13,441",40.058, -105.651
Arapahoe Peaks,105745963,105802014.0,"13,502",40.027, -105.649
Devil's Moles,113274997,105802014.0,"11,200",39.974, -105.673
Devil's Thumb,105746829,105802014.0,"12,100",39.978, -105.685
Elk Tooth,105746811,105802014.0,"12,848",40.168, -105.655
Haimovi Tower,105746403,105802014.0,"12,395",40.158, -105.696
Indian Peaks Traverses,114960525,105802014.0,"10,497",40.084, -105.581
Iroquois Peak,119480893,105802014.0,"11,791",40.067, -105.661
James Peak,105745055,105802014.0,"13,294",39.852, -105.689
Lake Isabelle,119724050,105802014.0,"10,909",40.069, -105.619
Lunchtime Boulder,119724094,119724050.0,"10,836",40.07, -105.612
Lone Eagle Peak,105746826,105802014.0,"11,920",40.071, -105.66
Mount Neva,105746397,105802014.0,"12,814",40.007, -105.688
Mount Toll,105746167,105802014.0,"12,979",40.088, -105.633
Mt. Audubon,105815230,105802014.0,"13,223",40.099, -105.616
Navajo Peak,105746022,105802014.0,"13,409",40.054, -105.646
Ogalalla Peak,105746814,105802014.0,"13,138",40.17, -105.666
Paiute Peak,106454047,105802014.0,"13,088",40.098, -105.633
"Peak 12,878",111173972,105802014.0,"12,878",40.05, -105.64
Roaring Fork Boulders,112078297,105802014.0,"9,000",40.137, -105.76
Hawaii Boulder,112078307,112078297.0,"8,900",40.136, -105.762
Three Finger Boulder,112092611,112078297.0,"9,298",40.137, -105.759
Sawtooth Mountain,113171667,105802014.0,"12,304",40.127, -105.625
Shoshoni Peak,106011962,105802014.0,"12,952",40.067, -105.639
Stone Lake Boulders,105859305,105802014.0,"10,600",40.05, -105.64
Swissco (bouldering),119382326,105802014.0,"10,908",39.823, -105.696
Main Area,119382368,119382326.0,"11,453",39.826, -105.703
Boulder #1,119382380,119382368.0,"11,382",39.826, -105.702
Boulder #2,119382396,119382368.0,"11,427",39.827, -105.703
Boulder #3,119382435,119382368.0,"11,482",39.826, -105.703
The Pinnacle,119382558,119382368.0,"11,487",39.826, -105.704
The Terrace,119382617,119382326.0,"11,980",39.824, -105.704
Break It Boulder,119382632,119382617.0,"11,736",39.825, -105.704
La Plata,105746039,105744466.0,"14,361",39.029, -106.473
Long / Multi-area Traverses,119476796,105744466.0,"10,960",39.972, -105.672
Maroon Bells,105746221,105744466.0,"14,156",39.071, -106.989
Mount of the Holy Cross,105746545,105744466.0,"14,005",39.468, -106.479
Mt. Bierstadt,113098779,105744466.0,"14,006",39.583, -105.669
East Ridge,113098789,113098779.0,"13,514",39.579, -105.66
Southwest Face,113098837,113098789.0,"13,163",39.578, -105.659
Frozen Lake Basin,113308119,113098779.0,"12,847",39.578, -105.664
Frozen Lake,113308228,113308119.0,"12,962",39.578, -105.668
Open Books,113308166,113308119.0,"12,556",39.576, -105.662
Slab,113308282,113308119.0,"12,796",39.576, -105.663
Southeast Face,115192752,113098779.0,"12,114",39.572, -105.65
Mt. Evans,105744358,105744466.0,"14,264",39.589, -105.643
Abyss Lake Basin,114552973,105744358.0,"12,034",39.57, -105.649
Mount Evans Side,114553029,114552973.0,"12,338",39.574, -105.641
Casual Delight Buttress,114553182,114553029.0,"12,745",39.574, -105.639
Corner Buttress,114581280,114553029.0,"12,901",39.573, -105.637
The Girlfriend Wall,114553049,114553029.0,"12,826",39.575, -105.639
Wind Tower,114581157,114553029.0,"12,867",39.572, -105.637
The Alpine Lite Cliffs,107696359,105744358.0,"11,600",36.613, -105.631
Easter Island,110974950,107696359.0,"12,410",39.612, -105.63
Innuendo Spire,107696403,107696359.0,"11,800",36.613, -105.631
Junk Show Pinnacle,113242969,107696359.0,"12,000",39.613, -105.63
Main Wall,107961143,107696359.0,,36.613, -105.631
The Aprons,105745711,105744358.0,"13,518",39.592, -105.65
The Black Wall,105745699,105744358.0,"13,156",39.606, -105.654
Chicago Creek Rock,105746277,105744358.0,,39.589, -105.643
Geneva Creek Crag,110140340,105744358.0,"10,000",39.589, -105.643
Lincoln Lake Slabs,106199323,105744358.0,"12,500",39.618, -105.606
"Mount Evans, North Face",107098513,105744358.0,"14,264",39.589, -105.645
Mt. Evans Bouldering,106497694,105744358.0,"10,616",39.66, -105.605
Area A,106497714,106497694.0,"10,929",39.633, -105.621
Bierstadt Area,106497723,106497714.0,"11,000",39.633, -105.621
Colorado,105708956,,"5,280",39.996, -105.298
10 Mile Canyon,106817352,105708956.0,"9,200",39.556, -106.132
10 Mile Tower,119784144,106817352.0,"9,301",39.57, -106.12
Brick Wall/Alcoves,119747707,106817352.0,"9,321",39.566, -106.126
The Alcoves,119747800,119747707.0,"9,331",39.567, -106.126
Brick Wall,119747726,119747707.0,"9,273",39.566, -106.126
The Cache Wall,112221833,106817352.0,"9,471",39.561, -106.132
The Diamond /Officer's Wall Massif,117387473,106817352.0,"9,995",39.538, -106.138
The Diamond Wall,106817410,117387473.0,"9,200",39.538, -106.138
Officer's Wall,108256713,117387473.0,"10,032",39.538, -106.138
The Dome,107938625,106817352.0,"9,500",39.571, -106.118
Halfway Rock,107751804,106817352.0,"10,060",39.539, -106.136
Mount Royal (near Frisco),106811705,106817352.0,"10,500",39.572, -106.111
Officer's Gulch West,107761942,106817352.0,"9,896",39.53, -106.141
The Shire,107211983,106817352.0,"9,333",39.572, -106.117
Sunshine Buttess (aka Wichita Wall),107748246,106817352.0,"10,500",39.571, -106.118
"Sunshine, Ding Dong Dome Bouldering",119014525,106817352.0,"9,184",39.57, -106.117
Caveman Boulder,119014547,119014525.0,"9,191",39.57, -106.117
Teeter Top,119747913,106817352.0,"9,543",39.568, -106.126
Wheeler Lakes,119346112,106817352.0,"11,085",39.521, -106.168
White Cliff,106869718,106817352.0,"9,500",39.568, -106.123
Alpine Rock,105744466,105708956.0,"12,146",40.257, -105.657
Capitol Peak,105746266,105744466.0,"14,130",39.15, -107.082
Chimneys of Treasure,105846369,105744466.0,"12,820",39.028, -107.117
The Citadel,107952001,105744466.0,"13,294",39.715, -105.911
Frasco's Toe,108625707,105744466.0,"12,600",39.129, -106.506
Gore Mountain Range,106753366,105744466.0,"10,000",39.693, -106.273
Buffalo Mountain,106639569,106753366.0,"12,770",39.618, -106.142
Eagle's Nest,109376503,106753366.0,"13,432",39.774, -106.35
East Partner Peak (aka Peak V),107747316,106753366.0,"13,057",39.693, -106.273
Mount Silverthorne,111123442,106753366.0,"13,357",39.654, -106.189
Peak C,107841242,106753366.0,"13,220",39.75, -106.337
Peak L,111600093,106753366.0,"13,213",39.742, -106.279
"Peaks X, Y, and Z",112031651,106753366.0,"13,100",39.706, -106.259
Sakkety Point,117559999,106753366.0,"8,967",40.154, -106.552
"Valhalla Peak, Freya Tower",112221941,106753366.0,"12,121",39.666, -106.206
"Valhalla Peak, Thor Tower",108214910,106753366.0,,39.693, -106.273
West Partner Peak,107657678,106753366.0,,39.693, -106.273
Grizzly Peak,105746644,105744466.0,"13,998",39.043, -106.597
Holy Cross Wilderness,111610593,105744466.0,"13,000",39.429, -106.509
Fool's Peak,112463302,111610593.0,"12,947",39.451, -106.6
Gold Dust Peak,112463342,111610593.0,"13,365",39.479, -106.595
The Underworld,113578767,111610593.0,"12,559",39.471, -106.467
Indian Peaks,105802014,105744466.0,"12,462",40.05, -105.64
"""Ooh La La!""",105746817,105802014.0,"12,945",40.162, -105.668
Apache Peak,105745995,105802014.0,"13,441",40.058, -105.651
Arapahoe Peaks,105745963,105802014.0,"13,502",40.027, -105.649
Devil's Moles,113274997,105802014.0,"11,200",39.974, -105.673
Devil's Thumb,105746829,105802014.0,"12,100",39.978, -105.685
Elk Tooth,105746811,105802014.0,"12,848",40.168, -105.655
Haimovi Tower,105746403,105802014.0,"12,395",40.158, -105.696
Indian Peaks Traverses,114960525,105802014.0,"10,497",40.084, -105.581
Iroquois Peak,119480893,105802014.0,"11,791",40.067, -105.661
James Peak,105745055,105802014.0,"13,294",39.852, -105.689
Lake Isabelle,119724050,105802014.0,"10,909",40.069, -105.619
Lunchtime Boulder,119724094,119724050.0,"10,836",40.07, -105.612
Lone Eagle Peak,105746826,105802014.0,"11,920",40.071, -105.66
Mount Neva,105746397,105802014.0,"12,814",40.007, -105.688
Mount Toll,105746167,105802014.0,"12,979",40.088, -105.633
Mt. Audubon,105815230,105802014.0,"13,223",40.099, -105.616
Navajo Peak,105746022,105802014.0,"13,409",40.054, -105.646
Ogalalla Peak,105746814,105802014.0,"13,138",40.17, -105.666
Paiute Peak,106454047,105802014.0,"13,088",40.098, -105.633
Colorado,105708956,,"5,280",39.996, -105.298
10 Mile Canyon,106817352,105708956.0,"9,200",39.556, -106.132
10 Mile Tower,119784144,106817352.0,"9,301",39.57, -106.12
Brick Wall/Alcoves,119747707,106817352.0,"9,321",39.566, -106.126
The Alcoves,119747800,119747707.0,"9,331",39.567, -106.126
Brick Wall,119747726,119747707.0,"9,273",39.566, -106.126
The Cache Wall,112221833,106817352.0,"9,471",39.561, -106.132
The Diamond /Officer's Wall Massif,117387473,106817352.0,"9,995",39.538, -106.138
The Diamond Wall,106817410,117387473.0,"9,200",39.538, -106.138
Officer's Wall,108256713,117387473.0,"10,032",39.538, -106.138
The Dome,107938625,106817352.0,"9,500",39.571, -106.118
Halfway Rock,107751804,106817352.0,"10,060",39.539, -106.136
Mount Royal (near Frisco),106811705,106817352.0,"10,500",39.572, -106.111
Officer's Gulch West,107761942,106817352.0,"9,896",39.53, -106.141
The Shire,107211983,106817352.0,"9,333",39.572, -106.117
Sunshine Buttess (aka Wichita Wall),107748246,106817352.0,"10,500",39.571, -106.118
"Sunshine, Ding Dong Dome Bouldering",119014525,106817352.0,"9,184",39.57, -106.117
Caveman Boulder,119014547,119014525.0,"9,191",39.57, -106.117
Teeter Top,119747913,106817352.0,"9,543",39.568, -106.126
Wheeler Lakes,119346112,106817352.0,"11,085",39.521, -106.168
White Cliff,106869718,106817352.0,"9,500",39.568, -106.123
Alpine Rock,105744466,105708956.0,"12,146",40.257, -105.657
Capitol Peak,105746266,105744466.0,"14,130",39.15, -107.082
Chimneys of Treasure,105846369,105744466.0,"12,820",39.028, -107.117
The Citadel,107952001,105744466.0,"13,294",39.715, -105.911
Frasco's Toe,108625707,105744466.0,"12,600",39.129, -106.506
Gore Mountain Range,106753366,105744466.0,"10,000",39.693, -106.273
Buffalo Mountain,106639569,106753366.0,"12,770",39.618, -106.142
Eagle's Nest,109376503,106753366.0,"13,432",39.774, -106.35
East Partner Peak (aka Peak V),107747316,106753366.0,"13,057",39.693, -106.273
Mount Silverthorne,111123442,106753366.0,"13,357",39.654, -106.189
Peak C,107841242,106753366.0,"13,220",39.75, -106.337
Peak L,111600093,106753366.0,"13,213",39.742, -106.279
"Peaks X, Y, and Z",112031651,106753366.0,"13,100",39.706, -106.259
Sakkety Point,117559999,106753366.0,"8,967",40.154, -106.552
"Valhalla Peak, Freya Tower",112221941,106753366.0,"12,121",39.666, -106.206
"Valhalla Peak, Thor Tower",108214910,106753366.0,,39.693, -106.273
West Partner Peak,107657678,106753366.0,,39.693, -106.273
Colorado,105708956,,"5,280",39.996, -105.298
10 Mile Canyon,106817352,105708956.0,"9,200",39.556, -106.132
10 Mile Tower,119784144,106817352.0,"9,301",39.57, -106.12
Brick Wall/Alcoves,119747707,106817352.0,"9,321",39.566, -106.126
The Alcoves,119747800,119747707.0,"9,331",39.567, -106.126
Brick Wall,119747726,119747707.0,"9,273",39.566, -106.126
The Cache Wall,112221833,106817352.0,"9,471",39.561, -106.132
The Diamond /Officer's Wall Massif,117387473,106817352.0,"9,995",39.538, -106.138
The Diamond Wall,106817410,117387473.0,"9,200",39.538, -106.138
Officer's Wall,108256713,117387473.0,"10,032",39.538, -106.138
The Dome,107938625,106817352.0,"9,500",39.571, -106.118
Halfway Rock,107751804,106817352.0,"10,060",39.539, -106.136
Mount Royal (near Frisco),106811705,106817352.0,"10,500",39.572, -106.111
Officer's Gulch West,107761942,106817352.0,"9,896",39.53, -106.141
The Shire,107211983,106817352.0,"9,333",39.572, -106.117
Sunshine Buttess (aka Wichita Wall),107748246,106817352.0,"10,500",39.571, -106.118
"Sunshine, Ding Dong Dome Bouldering",119014525,106817352.0,"9,184",39.57, -106.117
Caveman Boulder,119014547,119014525.0,"9,191",39.57, -106.117
Teeter Top,119747913,106817352.0,"9,543",39.568, -106.126
Wheeler Lakes,119346112,106817352.0,"11,085",39.521, -106.168
White Cliff,106869718,106817352.0,"9,500",39.568, -106.123
Alpine Rock,105744466,105708956.0,"12,146",40.257, -105.657
Capitol Peak,105746266,105744466.0,"14,130",39.15, -107.082
Chimneys of Treasure,105846369,105744466.0,"12,820",39.028, -107.117
The Citadel,107952001,105744466.0,"13,294",39.715, -105.911
Frasco's Toe,108625707,105744466.0,"12,600",39.129, -106.506
Gore Mountain Range,106753366,105744466.0,"10,000",39.693, -106.273
Buffalo Mountain,106639569,106753366.0,"12,770",39.618, -106.142
Eagle's Nest,109376503,106753366.0,"13,432",39.774, -106.35
East Partner Peak (aka Peak V),107747316,106753366.0,"13,057",39.693, -106.273
Mount Silverthorne,111123442,106753366.0,"13,357",39.654, -106.189
Peak C,107841242,106753366.0,"13,220",39.75, -106.337
Peak L,111600093,106753366.0,"13,213",39.742, -106.279
"Peaks X, Y, and Z",112031651,106753366.0,"13,100",39.706, -106.259
Sakkety Point,117559999,106753366.0,"8,967",40.154, -106.552
"Valhalla Peak, Freya Tower",112221941,106753366.0,"12,121",39.666, -106.206
"Valhalla Peak, Thor Tower",108214910,106753366.0,,39.693, -106.273
West Partner Peak,107657678,106753366.0,,39.693, -106.273
Grizzly Peak,105746644,105744466.0,"13,998",39.043, -106.597
Holy Cross Wilderness,111610593,105744466.0,"13,000",39.429, -106.509
Fool's Peak,112463302,111610593.0,"12,947",39.451, -106.6
Gold Dust Peak,112463342,111610593.0,"13,365",39.479, -106.595
The Underworld,113578767,111610593.0,"12,559",39.471, -106.467
Indian Peaks,105802014,105744466.0,"12,462",40.05, -105.64
Colorado,105708956,,"5,280",39.996, -105.298
10 Mile Canyon,106817352,105708956.0,"9,200",39.556, -106.132
10 Mile Tower,119784144,106817352.0,"9,301",39.57, -106.12
Brick Wall/Alcoves,119747707,106817352.0,"9,321",39.566, -106.126
The Alcoves,119747800,119747707.0,"9,331",39.567, -106.126
Brick Wall,119747726,119747707.0,"9,273",39.566, -106.126
The Cache Wall,112221833,106817352.0,"9,471",39.561, -106.132
The Diamond /Officer's Wall Massif,117387473,106817352.0,"9,995",39.538, -106.138
The Diamond Wall,106817410,117387473.0,"9,200",39.538, -106.138
Officer's Wall,108256713,117387473.0,"10,032",39.538, -106.138
The Dome,107938625,106817352.0,"9,500",39.571, -106.118
Halfway Rock,107751804,106817352.0,"10,060",39.539, -106.136
Mount Royal (near Frisco),106811705,106817352.0,"10,500",39.572, -106.111
Officer's Gulch West,107761942,106817352.0,"9,896",39.53, -106.141
The Shire,107211983,106817352.0,"9,333",39.572, -106.117
Sunshine Buttess (aka Wichita Wall),107748246,106817352.0,"10,500",39.571, -106.118
"Sunshine, Ding Dong Dome Bouldering",119014525,106817352.0,"9,184",39.57, -106.117
Caveman Boulder,119014547,119014525.0,"9,191",39.57, -106.117
Teeter Top,119747913,106817352.0,"9,543",39.568, -106.126
Wheeler Lakes,119346112,106817352.0,"11,085",39.521, -106.168
White Cliff,106869718,106817352.0,"9,500",39.568, -106.123
Alpine Rock,105744466,105708956.0,"12,146",40.257, -105.657
Capitol Peak,105746266,105744466.0,"14,130",39.15, -107.082
Chimneys of Treasure,105846369,105744466.0,"12,820",39.028, -107.117
The Citadel,107952001,105744466.0,"13,294",39.715, -105.911
Frasco's Toe,108625707,105744466.0,"12,600",39.129, -106.506
Gore Mountain Range,106753366,105744466.0,"10,000",39.693, -106.273
Buffalo Mountain,106639569,106753366.0,"12,770",39.618, -106.142
Eagle's Nest,109376503,106753366.0,"13,432",39.774, -106.35
East Partner Peak (aka Peak V),107747316,106753366.0,"13,057",39.693, -106.273
Mount Silverthorne,111123442,106753366.0,"13,357",39.654, -106.189
Peak C,107841242,106753366.0,"13,220",39.75, -106.337
Peak L,111600093,106753366.0,"13,213",39.742, -106.279
"Peaks X, Y, and Z",112031651,106753366.0,"13,100",39.706, -106.259
Sakkety Point,117559999,106753366.0,"8,967",40.154, -106.552
"Valhalla Peak, Freya Tower",112221941,106753366.0,"12,121",39.666, -106.206
"Valhalla Peak, Thor Tower",108214910,106753366.0,,39.693, -106.273
West Partner Peak,107657678,106753366.0,,39.693, -106.273
Grizzly Peak,105746644,105744466.0,"13,998",39.043, -106.597
Holy Cross Wilderness,111610593,105744466.0,"13,000",39.429, -106.509
Fool's Peak,112463302,111610593.0,"12,947",39.451, -106.6
Gold Dust Peak,112463342,111610593.0,"13,365",39.479, -106.595
The Underworld,113578767,111610593.0,"12,559",39.471, -106.467
Indian Peaks,105802014,105744466.0,"12,462",40.05, -105.64
"""Ooh La La!""",105746817,105802014.0,"12,945",40.162, -105.668
Apache Peak,105745995,105802014.0,"13,441",40.058, -105.651
Arapahoe Peaks,105745963,105802014.0,"13,502",40.027, -105.649
Devil's Moles,113274997,105802014.0,"11,200",39.974, -105.673
Devil's Thumb,105746829,105802014.0,"12,100",39.978, -105.685
Elk Tooth,105746811,105802014.0,"12,848",40.168, -105.655
Haimovi Tower,105746403,105802014.0,"12,395",40.158, -105.696
Indian Peaks Traverses,114960525,105802014.0,"10,497",40.084, -105.581
Iroquois Peak,119480893,105802014.0,"11,791",40.067, -105.661
James Peak,105745055,105802014.0,"13,294",39.852, -105.689
Lake Isabelle,119724050,105802014.0,"10,909",40.069, -105.619
Lunchtime Boulder,119724094,119724050.0,"10,836",40.07, -105.612
Lone Eagle Peak,105746826,105802014.0,"11,920",40.071, -105.66
Mount Neva,105746397,105802014.0,"12,814",40.007, -105.688
Mount Toll,105746167,105802014.0,"12,979",40.088, -105.633
Mt. Audubon,105815230,105802014.0,"13,223",40.099, -105.616
Navajo Peak,105746022,105802014.0,"13,409",40.054, -105.646
Ogalalla Peak,105746814,105802014.0,"13,138",40.17, -105.666
Paiute Peak,106454047,105802014.0,"13,088",40.098, -105.633
"Peak 12,878",111173972,105802014.0,"12,878",40.05, -105.64
Roaring Fork Boulders,112078297,105802014.0,"9,000",40.137, -105.76
Hawaii Boulder,112078307,112078297.0,"8,900",40.136, -105.762
Three Finger Boulder,112092611,112078297.0,"9,298",40.137, -105.759
Sawtooth Mountain,113171667,105802014.0,"12,304",40.127, -105.625
Shoshoni Peak,106011962,105802014.0,"12,952",40.067, -105.639
Stone Lake Boulders,105859305,105802014.0,"10,600",40.05, -105.64
Swissco (bouldering),119382326,105802014.0,"10,908",39.823, -105.696
Main Area,119382368,119382326.0,"11,453",39.826, -105.703
Boulder #1,119382380,119382368.0,"11,382",39.826, -105.702
Boulder #2,119382396,119382368.0,"11,427",39.827, -105.703
Boulder #3,119382435,119382368.0,"11,482",39.826, -105.703
The Pinnacle,119382558,119382368.0,"11,487",39.826, -105.704
The Terrace,119382617,119382326.0,"11,980",39.824, -105.704
Break It Boulder,119382632,119382617.0,"11,736",39.825, -105.704
La Plata,105746039,105744466.0,"14,361",39.029, -106.473
Long / Multi-area Traverses,119476796,105744466.0,"10,960",39.972, -105.672
Maroon Bells,105746221,105744466.0,"14,156",39.071, -106.989
Mount of the Holy Cross,105746545,105744466.0,"14,005",39.468, -106.479
Mt. Bierstadt,113098779,105744466.0,"14,006",39.583, -105.669
East Ridge,113098789,113098779.0,"13,514",39.579, -105.66
Southwest Face,113098837,113098789.0,"13,163",39.578, -105.659
Frozen Lake Basin,113308119,113098779.0,"12,847",39.578, -105.664
Frozen Lake,113308228,113308119.0,"12,962",39.578, -105.668
Open Books,113308166,113308119.0,"12,556",39.576, -105.662
Slab,113308282,113308119.0,"12,796",39.576, -105.663
Southeast Face,115192752,113098779.0,"12,114",39.572, -105.65
Mt. Evans,105744358,105744466.0,"14,264",39.589, -105.643
Abyss Lake Basin,114552973,105744358.0,"12,034",39.57, -105.649
Mount Evans Side,114553029,114552973.0,"12,338",39.574, -105.641
Casual Delight Buttress,114553182,114553029.0,"12,745",39.574, -105.639
Corner Buttress,114581280,114553029.0,"12,901",39.573, -105.637
The Girlfriend Wall,114553049,114553029.0,"12,826",39.575, -105.639
Wind Tower,114581157,114553029.0,"12,867",39.572, -105.637
The Alpine Lite Cliffs,107696359,105744358.0,"11,600",36.613, -105.631
Easter Island,110974950,107696359.0,"12,410",39.612, -105.63
Innuendo Spire,107696403,107696359.0,"11,800",36.613, -105.631
Junk Show Pinnacle,113242969,107696359.0,"12,000",39.613, -105.63
Main Wall,107961143,107696359.0,,36.613, -105.631
The Aprons,105745711,105744358.0,"13,518",39.592, -105.65
The Black Wall,105745699,105744358.0,"13,156",39.606, -105.654
Chicago Creek Rock,105746277,105744358.0,,39.589, -105.643
Geneva Creek Crag,110140340,105744358.0,"10,000",39.589, -105.643
Lincoln Lake Slabs,106199323,105744358.0,"12,500",39.618, -105.606
"Mount Evans, North Face",107098513,105744358.0,"14,264",39.589, -105.645
Mt. Evans Bouldering,106497694,105744358.0,"10,616",39.66, -105.605
Area A,106497714,106497694.0,"10,929",39.633, -105.621
Bierstadt Area,106497723,106497714.0,"11,000",39.633, -105.621
The Dali Area,106497877,106497714.0,"11,100",39.631, -105.621
French Kiss Area,106812275,106497714.0,"11,127",39.632, -105.62
Seurat Area,106497849,106497714.0,"11,000",39.632, -105.622
Gateway Boulder,106581073,106497694.0,"10,800",39.7, -105.206
Hell's Hole,114581375,106497694.0,"11,315",39.628, -105.674
Laying In Wait Boulder,107857038,106497694.0,,39.66, -105.605
Lincoln Lake,107216894,106497694.0,"11,726",39.618, -105.603
Roadside Sector,112003380,106497694.0,"10,800",39.647, -105.616
Roadside Boulder,112003432,112003380.0,"10,548",39.647, -105.616
Warm Up Boulder,112003402,112003380.0,"10,519",39.647, -105.616
Old Goat Wall,118055721,105744358.0,"12,361",39.575, -105.614
Possibility Area,117652219,105744358.0,"11,723",39.632, -105.617
Little Possibility Wall,117652256,117652219.0,"11,536",39.633, -105.618
Possibility Slab,117652337,117652219.0,"11,607",39.632, -105.618
Possibility Wall,117652237,117652219.0,"11,792",39.631, -105.618
Summit Lake Couloirs,105746337,105744358.0,"13,874",39.589, -105.646
The Tan Buttresses,106226367,105744358.0,"12,677",39.611, -105.652
West Buttress,105746647,105744358.0,,39.589, -105.649
Northstar Mountain,119735324,105744466.0,"13,296",39.377, -106.099
Mind Dump,119685176,119735324.0,"11,186",39.381, -106.078
Pettingell Peak,114612355,105744466.0,"13,514",39.729, -105.905
Pyramid Peak,105746680,105744466.0,"14,018",39.071, -106.95
Quandary Peak,105745307,105744466.0,"14,265",39.397, -106.106
RMNP - Rock,105744460,105744466.0,"8,524",40.375, -105.616
Aiguille de Fleur,107303626,105744460.0,"11,940",40.215, -105.704
Alberta Falls Wall,107701839,105744460.0,,40.375, -105.616
Cathedral Wall,105745358,105744460.0,,40.287, -105.668
Fairchild Mountain,107782891,105744460.0,"13,502",40.468, -105.664
Fern Canyon Rocks,105744838,105744460.0,"8,794",40.352, -105.657
Before Rock of Ages,115131373,105744838.0,"8,427",40.354, -105.643
The Lost World,105848733,105744838.0,"9,000",40.352, -105.657
Rock Of Ages,105746122,105744838.0,"8,751",40.352, -105.654
Flattop Mountain,110636302,105744460.0,"12,324",40.375, -105.616
The Foil,105745666,105744460.0,,40.375, -105.616
The Gable,107805966,105744460.0,,40.375, -105.616
Glacier Gorge,106575635,105744460.0,"10,638",40.266, -105.641
A Walk in The Park,106563883,106575635.0,,40.266, -105.641
Arrowhead,105745588,106575635.0,"12,642",40.268, -105.65
Chiefshead,107088643,106575635.0,"13,579",40.249, -105.641
Chiefshead Northeast Face,105744911,106575635.0,"13,579",40.249, -105.641
Chiefshead Northwest Face,105745983,106575635.0,"13,579",40.249, -105.641
Half Mountain,107446898,106575635.0,,40.266, -105.641
"Astro Tower & Group Half Mt., Glacier Gorge, RMNP",107446444,107446898.0,"11,482",40.266, -105.641
McHenry's Peak,105746304,106575635.0,"13,327",40.263, -105.657
Pagoda Mountain,105838845,106575635.0,"13,497",40.249, -105.627
Rain Delay Crag,111990512,106575635.0,"11,400",40.259, -105.631
Shameless Tower,117369215,106575635.0,"12,440",40.264, -105.656
Shelf Cirque,107102678,106575635.0,"11,500",40.273, -105.648
Spearhead,105744832,106575635.0,"12,575",40.257, -105.638
The Golden Shower Wall,106865559,105744460.0,,40.283, -105.673
Hallett Peak,105744829,105744460.0,"12,713",40.303, -105.686
Hayden Spires,106497214,105744460.0,"11,600",40.375, -105.616
Isolation Peak,117743503,105744460.0,"12,860",40.203, -105.677
Little Matterhorn,105746844,105744460.0,,40.375, -105.616
Long's Peak,105857350,105744460.0,"14,256",40.255, -105.616
Chasm View Wall,105857377,105857350.0,"13,000",40.258, -105.615
The Diamond,105744826,105857350.0,"14,255",40.256, -105.614
Keyboard of the Winds,105857388,105857350.0,"13,600",40.249, -105.619
Lower East Face,105857372,105857350.0,"13,500",40.256, -105.612
North Face/Ridge,105857391,105857350.0,"14,256",40.259, -105.619
Palisades,105857381,105857350.0,"14,000",40.253, -105.615
Ship's Prow,105746080,105857350.0,"12,800",40.254, -105.605
Upper East Face,105857359,105857350.0,"14,000",40.254, -105.612
West Face,105746227,105857350.0,"14,255",40.255, -105.615
Lost Meadow Crags,107883478,105744460.0,"10,800",40.509, -105.582
Forgotten Wall,107883526,107883478.0,"10,883",40.509, -105.581
Forsaken Tower,107883545,107883478.0,"10,956",40.509, -105.582
Shield of Dreams,107883502,107883478.0,"10,879",40.509, -105.582
Mount Julian,107035054,105744460.0,"12,928",40.371, -105.758
Mt. Alice,105746042,105744460.0,"13,310",40.239, -105.663
Mt. Meeker,105745130,105744460.0,"13,911",40.249, -105.604
Notchtop,105744835,105744460.0,"12,129",40.319, -105.694
Otis Peak,106876239,105744460.0,"11,000",40.292, -105.681
Cosmo,106897218,106876239.0,,40.292, -105.681
Fire Tower,106891466,106876239.0,,40.292, -105.681
Forgotten Spire,111028758,106876239.0,,40.292, -105.681
Hidden Spire,111028755,106876239.0,,40.292, -105.681
Otis Flower Tower,105844471,106876239.0,,40.292, -105.681
Otis Power Tower  (known in the new Haas book as The Momento),106885637,106876239.0,"12,452",40.292, -105.681
Piton Spire,106878445,106876239.0,,40.292, -105.681
The Solar Wall,105844230,106876239.0,"11,000",40.292, -105.681
Thrill Tower,111028751,106876239.0,,40.292, -105.681
Wham,105746010,106876239.0,,40.292, -105.681
Zowie,105745459,106876239.0,,40.292, -105.67
The Penknife,105837076,105744460.0,"12,000",40.284, -105.679
Petit Grepon,105745980,105744460.0,"11,711",40.28, -105.673
Pilot Mtn.,108324393,105744460.0,"12,200",40.23, -105.658
Powell Peak,105746051,105744460.0,"13,208",40.266, -105.664
Ptarmigan Towers,105746301,105744460.0,,40.375, -105.616
RMNP Bouldering Areas,106286416,105744460.0,"9,446",40.312, -105.645
Chaos Canyon Bouldering,106286420,106286416.0,"10,265",40.305, -105.665
Lower Chaos Canyon,106291581,106286420.0,"10,195",40.305, -105.661
50-50 Boulder,114420292,106291581.0,"10,213",40.304, -105.661
The Automator Boulder,106293956,106291581.0,,40.305, -105.661
Bush Pilot Boulder,106291601,106291581.0,,40.305, -105.66
Bushpilot Warm Up Boulder,109380032,106291581.0,,40.305, -105.66
Centaur Boulder,106291588,106291581.0,,40.305, -105.66
Deep Puddle Dynamics,106476130,106291581.0,"10,220",40.305, -105.661
European Human Being Boulder,106807752,106291581.0,,40.305, -105.661
Geeks of the Industry Boulder,106842178,106291581.0,,40.305, -105.66
The Gobot Boulder,106293949,106291581.0,,40.305, -105.661
Gobot warmups,106581501,106291581.0,,40.305, -105.661
Green Slab Wall,106835107,106291581.0,,40.305, -105.661
Little Orb,109380000,106291581.0,,40.305, -105.661
Outcast,111217554,106291581.0,"10,487",40.302, -105.668
The Potato Chip Boulder,106501338,106291581.0,,40.305, -105.659
Revenge Area,106291614,106291581.0,,40.305, -105.661
Skyscraper Boulder,106627218,106291581.0,"9,500",40.305, -105.661
The Unnamable,109380055,106291581.0,,40.305, -105.661
Warm-Up Boulder,106291621,106291581.0,,40.305, -105.661
Upper Chaos Canyon,106286424,106286420.0,"10,697",40.304, -105.67
Baby Otech Boulder,109365627,106286424.0,,40.304, -105.67
Battlebug Boulder,119557186,106286424.0,"10,448",40.303, -105.667
"Brimstone Area (i.e., lower upper)",109348324,106286424.0,,40.304, -105.67
Creme Fraiche Boulder,109322892,106286424.0,,40.304, -105.67
Dividing Line Area,109338241,106286424.0,,40.304, -105.67
El Jorge Boulder,106821524,106286424.0,"11,000",40.304, -105.67
The Example,109474830,106286424.0,,40.304, -105.67
The Fuzz Boulder,109473935,106286424.0,,40.304, -105.67
Golden Rows of Flows Boulder,106821536,106286424.0,"11,000",40.304, -105.67
Green 45 Area,106843385,106286424.0,"11,000",40.304, -105.67
Green 45 Boulder,106843388,106843385.0,"11,000",40.304, -105.67
Riddles Boulder,106499808,106286424.0,"9,500",40.304, -105.67
Skipper Roof,106821544,106286424.0,"11,000",40.304, -105.67
Terror Boulder,109322934,106286424.0,,40.304, -105.67
Travesse Roof,113417781,106286424.0,"10,787",40.304, -105.67
Windy in a Basket Boulder,119669783,106286424.0,"10,465",40.304, -105.667
KB Boulder - Hollowell Park,105746373,106286416.0,,40.312, -105.645
RMNP Bouldering Miscellaneous Areas,106286439,106286416.0,"9,752",40.331, -105.642
Bear Lake,117521260,106286439.0,"9,502",40.313, -105.648
Fern Lake,113588159,106286439.0,"9,507",40.337, -105.677
Lone Star,106500098,106286439.0,"9,478",40.306, -105.643
Moraine Park Boulders (aka Fern Lake Trail/The Pool/Arch Rocks),106784478,106286439.0,"8,500",40.312, -105.645
Hanging Arete Boulders,110268742,106784478.0,"8,134",40.355, -105.631
Trailside Boulder,118115033,106784478.0,"8,280",40.352, -105.647
Unknown Boulder,106784488,106784478.0,"8,500",40.312, -105.645
Warm-Up Boulder,112002422,106784478.0,"8,558",40.353, -105.648
Veritas,106481278,106286439.0,,40.331, -105.642
The Suzuki Boulder,106385805,106286416.0,,40.371, -105.588
Tyndall Gorge,106286436,106286416.0,,40.312, -105.645
Emerald Lake,106443049,106286436.0,,40.309, -105.665
The Saber,105745600,105744460.0,"11,856",40.282, -105.674
The Seldom Seen Wall,106805057,105744460.0,"12,206",40.278, -105.679
Sharkstooth,105745133,105744460.0,"12,630",40.281, -105.674
Snowdrift Buttress,106010173,105744460.0,"11,360",40.375, -105.616
The Stiletto,108195879,105744460.0,,40.375, -105.616
Taylor Peak,105746004,105744460.0,"13,153",40.274, -105.68
Thatchtop Mountain,110949921,105744460.0,"10,200",40.288, -105.657
North Face,110952380,110949921.0,"10,200",40.288, -105.657
Thumb Rock,105746653,105744460.0,,40.375, -105.616
Tyndall Gorge,105745564,105744460.0,,40.375, -105.616
Wild Basin (bouldering),110544801,105744460.0,"8,300",40.208, -105.567
Boxcar Boulder,114971067,110544801.0,"8,400",40.214, -105.551
Left Side of the River,110892984,110544801.0,,40.208, -105.567
Main Area,110556740,110544801.0,"8,746",40.203, -105.578
Thug Roof,117361951,110544801.0,"8,470",40.212, -105.554
Ypsilon Mountain,105745669,105744460.0,"13,514",40.457, -105.681
San Juans,107498784,105744466.0,"12,998",37.657, -107.602
Babcock Peak,106437382,107498784.0,"13,149",37.439, -108.081
Dallas Peak,105746838,107498784.0,"13,809",37.988, -107.823
Engineer Pass,105965475,107498784.0,"10,000",37.657, -107.602
Gilpin Peak,109088420,107498784.0,"13,694",37.987, -107.793
Grand Turk,113644035,107498784.0,"13,097",37.776, -107.695
Atat√ºrk's Vision,113644044,113644035.0,"12,322",37.773, -107.69
Reign of Women,113644262,113644035.0,"12,003",37.771, -107.697
The Grenadiers,107498826,107498784.0,"13,392",37.675, -107.558
Arrow Peak,107554173,107498826.0,"13,803",37.698, -107.611
The Guardian,106861500,107498826.0,"13,600",37.662, -107.541
Mt. Silex,106823941,107498826.0,"13,628",37.67, -107.548
"Peak 13,405",108203832,107498826.0,,37.675, -107.558
Storm King,106976550,107498826.0,"13,752",37.677, -107.562
Vestal Peak,105746140,107498826.0,"13,664",37.689, -107.602
West Trinity Peak,106906574,107498826.0,"13,765",37.687, -107.588
Mount Sneffels,105745939,107498784.0,"14,150",38.003, -107.792
The Needles,107498858,107498784.0,"13,569",37.646, -107.588
The Index,107245120,107498858.0,"13,420",37.646, -107.588
Jagged Mountain,105746832,107498858.0,"13,824",37.646, -107.588
Knife Point,106977587,107498858.0,"12,545",37.64, -107.595
Leviathan Peak,113543574,107498858.0,"12,482",37.642, -107.578
Noname Needle,107769860,107498858.0,"13,620",37.646, -107.588
Pigeon Peak,106879627,107498858.0,"13,972",37.633, -107.646
Sunlight Spire,105980399,107498858.0,"14,000",37.646, -107.588
West Eolus,117788224,107498858.0,"13,696",37.621, -107.628
West Needle Mountains,106867741,107498858.0,"13,000",37.683, -107.709
Snowdon Peak,106867769,106867741.0,"13,077",37.713, -107.693
Northern San Juans,108426897,107498784.0,"13,000",37.939, -107.808
"'S6' Pk 13,441",112063987,108426897.0,"13,441",38.007, -107.847
Gladstone Peak,108439266,108426897.0,"13,913",37.848, -107.985
Lizard Head,105746421,108426897.0,"13,113",37.836, -107.95
Mears Peak,108427891,108426897.0,"13,496",38.011, -107.864
Teakettle Mountain,111998496,108426897.0,"13,819",38.001, -107.762
Telluride Traverses,108439305,108426897.0,"13,000",37.967, -107.799
Wilson Peak,108439283,108426897.0,"14,017",37.861, -107.985
Wilson Peaks,108426927,108426897.0,13,37.853, -107.968
"Peak 17 ""Little Finger""",107245188,107498784.0,"13,220",37.657, -107.602
Rolling Mountain,106861339,107498784.0,"13,693",37.765, -107.826
Turret Ridge,114142852,107498784.0,"12,235",38.145, -107.539
Twin Peaks,109212022,107498784.0,"12,461",37.928, -106.772
Uncompahgre/Big Blue Wilderness,106571387,107498784.0,"14,309",38.15, -107.757
Chimney Rock,106580889,106571387.0,"11,781",38.146, -107.57
Coxcomb Peak,107278814,106571387.0,"13,656",38.08, -107.534
Dunsinane Mountain,106581102,106571387.0,"12,742",38.15, -107.757
Odyssey Boulders,117831964,106571387.0,"12,213",38.086, -107.528
Lower Odyssey Boulders,117831968,117831964.0,"12,214",38.086, -107.528
Wetterhorn Trail Boulders,109209870,106571387.0,"11,000",38.09, -107.547
Sangre de Cristo Range,117789394,105744466.0,"13,769",37.967, -105.585
Blanca Peak,105746400,117789394.0,"14,284",37.578, -105.485
Crestolita,117791659,117789394.0,"13,032",37.955, -105.576
The Crestones,105744744,117789394.0,"14,294",37.967, -105.585
Ellingwood Point,109449479,117789394.0,"14,042",37.583, -105.493
Fluted Peak,107618562,117789394.0,"13,554",40.257, -105.657
Little Bear Peak,106016598,117789394.0,"14,037",37.567, -105.497
Music Mountain,114503972,117789394.0,"13,143",37.938, -105.55
Tijeras Peak,106108978,117789394.0,"13,609",40.257, -105.657
"Sawtooth Ridge, Mt. Bierstadt/Evans combo",108427849,105744466.0,"14,000",39.592, -105.657
Tenmile Range,108333058,105744466.0,"14,265",39.473, -106.103
Mount Bross,114023739,108333058.0,"13,841",39.335, -106.11
Pacific Peak,105745921,108333058.0,"13,950",39.423, -106.123
Tenmile Range Traverses,118109351,108333058.0,"10,213",39.534, -106.069
Torrey's Peak,105745960,105744466.0,"14,267",39.643, -105.821
Blue Lakes,119181596,105708956.0,"10,955",38, -107.816
Citradelica Rock,119181675,119181596.0,"10,938",38, -107.816
Flowsnake Rock,119181927,119181596.0,"11,052",37.999, -107.816
Boulder,105801420,105708956.0,"5,355",40.018, -105.28
Boulder Canyon,105744222,105801420.0,"7,116",40.002, -105.41
Above Tower of Babel,105861997,105744222.0,"6,800",40.003, -105.408
Across From Cenotaph,105862845,105744222.0,"8,150",39.976, -105.46
Across From Mind Shaft Cliff Crag,105861965,105744222.0,"6,500",40.002, -105.41
Across from The Bihedral aka Cascade Crag,105746307,105744222.0,"6,800",40.003, -105.397
Ament's Rock,105746686,105744222.0,"5,650",40.016, -105.311
The Angel of Death (formerly known as The Beer Can),105746077,105744222.0,"7,450",39.997, -105.418
Animal World,105744917,105744222.0,"7,461",39.998, -105.415
Lower Animal World,114435426,105744917.0,"7,384",39.998, -105.415
Middle Animal World,114435447,105744917.0,"7,371",39.998, -105.415
Upper Animal World,114435464,105744917.0,"7,292",39.998, -105.414
The Arena (aka Contender Wall),105745747,105744222.0,,40.002, -105.41
Armin's Crag,106056543,105744222.0,"6,500",39.998, -105.416
Avalon,105745528,105744222.0,"7,326",39.999, -105.412
First Tier,105810437,105745528.0,"7,310",39.999, -105.412
Second Tier,105810440,105745528.0,"7,384",39.999, -105.412
Clipboard Area,105810455,105810440.0,,39.999, -105.412
Middle Wall,105810458,105810440.0,"7,416",39.998, -105.412
Tarot Wall,105810443,105810440.0,"7,331",39.999, -105.412
Three Dihedrals,105810446,105810440.0,,39.999, -105.412
Wall of the Dead,105810452,105810440.0,"7,450",39.998, -105.412
Third Tier,105810461,105745528.0,"7,477",39.999, -105.412
Crack Land,105810466,105810461.0,"7,469",39.999, -105.412
Southwest Buttress,105810475,105810461.0,,39.999, -105.412
Wall of the Dragon,105810469,105810461.0,,39.999, -105.412
Wall of the Goddess,105810478,105810461.0,,39.999, -105.412
West Gully,105810472,105810461.0,,39.999, -105.412
Bell Buttress Massif,105864848,105744222.0,"6,600",40.001, -105.413
Aquarium Wall,105864851,105864848.0,"6,600",40.001, -105.413
Bean Liquor Wall,105864858,105864848.0,"6,600",40.001, -105.413
Bell Buttress - Main Crag,105745079,105864848.0,"7,113",40.001, -105.413
The Patio,105864854,105864848.0,"6,600",40.001, -105.413
Between Crackland and Wizard Rock,106909001,105744222.0,,40.002, -105.41
BH Block,106597307,105744222.0,"7,085",40.002, -105.41
The Bihedral Area,105859534,105744222.0,"6,850",40.003, -105.397
The Bihedral (Upper Tier),105745016,105859534.0,"7,020",40.004, -105.396
Castaway Block,106597338,105859534.0,,40.003, -105.397
The Left Side,105859537,105859534.0,"6,800",40.004, -105.397
The Lower Tier,105936825,105859534.0,"6,915",40.004, -105.397
The Riviera,105744599,105859534.0,"6,890",40.003, -105.396
Bitty Buttress,105744605,105744222.0,"7,014",40.002, -105.387
Black Widow Slab,105746409,105744222.0,"7,400",39.997, -105.415
Blob Rock Area,105810491,105744222.0,"7,151",40.003, -105.388
Blob Rock,105744617,105810491.0,"7,085",40.002, -105.388
Central Chimney Area,105811157,105744617.0,,40.002, -105.388
Dike Wall,105811154,105744617.0,,40.002, -105.388
Main Wall,105811160,105744617.0,"7,089",40.003, -105.389
Right Gully,105811163,105744617.0,"7,151",40.003, -105.389
Upper East Face,105811166,105744617.0,,40.002, -105.388
West Buttress aka Comedy Wall,105810544,105744617.0,"7,000",40.003, -105.389
East Blob,105810506,105810491.0,"7,124",40.002, -105.388
Blob Slab,105810500,105810506.0,,40.002, -105.388
Upper East Face,105810817,105810506.0,"7,148",40.002, -105.388
Little Blob,105811313,105810491.0,,40.003, -105.388
Small Package Block,105746883,105810491.0,,40.003, -105.388
Boulder Canyon Boulder (AKA Graham Boulder),105746474,105744222.0,"6,806",40.004, -105.4
Boulder Falls East,105959633,105744222.0,"6,989",40.006, -105.406
Boulder Slips,105860783,105744222.0,"6,950",40.005, -105.407
The Boulderado,105744641,105744222.0,"7,376",39.997, -105.416
The Bowling Alley,105863546,105744222.0,"7,073",40.002, -105.413
Lower Right Side,105863541,105863546.0,"6,500",40.002, -105.413
Main Crag,105744638,105863546.0,,40.002, -105.413
The Brick Wall,105744587,105744222.0,"6,178",40.004, -105.364
Broken Rock,105746331,105744222.0,"7,800",39.979, -105.454
Bummers Rock,105744576,105744222.0,"6,500",40.01, -105.343
Canyon Block,106014126,105744222.0,"6,332",40.005, -105.365
Castle Rock,105744656,105744222.0,"7,800",39.979, -105.455
The Catacombs,109142199,105744222.0,,40.002, -105.41
Cenotaph Crag,105745813,105744222.0,"8,000",39.978, -105.46
Cenotaph Spire,106830585,105744222.0,"7,000",40.002, -105.41
Cob Rock,105744567,105744222.0,"6,650",40.001, -105.39
Coney Island,105744894,105744222.0,"7,650",39.993, -105.418
The Cornerstone,105744776,105744222.0,"7,400",40.003, -105.414
Couch Fire Crag,105832576,105744222.0,"7,800",39.984, -105.449
Diagon Alley,112520352,105744222.0,"5,582",40.011, -105.309
The Dome,105744581,105744222.0,"5,789",40.014, -105.308
Eagle Rock,105744900,105744222.0,"6,699",39.999, -105.383
East Of Eden,106189795,105744222.0,"8,000",40.002, -105.41
Easter Rock,105745978,105744222.0,"7,600",39.994, -105.418
Electra Glide,105744635,105744222.0,"7,139",40.002, -105.413
Elephant Buttresses,105744584,105744222.0,"5,614",40.013, -105.308
The Dome Boulder,107186734,105744584.0,"5,779",40.014, -105.307
Elephant Boulders,108020833,105744584.0,"5,570",40.014, -105.309
First Buttress,105810509,105744584.0,"5,663",40.013, -105.308
Fourth Buttress,105810518,105744584.0,"5,548",40.012, -105.309
Second Buttress,105810512,105744584.0,"5,646",40.013, -105.308
Third Buttress,105810515,105744584.0,"5,614",40.013, -105.308
Topknot,106129843,105744584.0,"5,584",40.012, -105.308
Frisky Cliff,105746495,105744222.0,"8,000",39.978, -105.454
Frogman Pinnacle,105809402,105744222.0,"5,600",40.014, -105.309
Garden Party Wall,105746007,105744222.0,"7,050",40.001, -105.397
Ghost Crag,117832235,105744222.0,"5,979",40.006, -105.338
Goofy Spire,108294091,105744222.0,"5,758",40.011, -105.308
Happy Hour Crag,105744626,105744222.0,"6,874",40.003, -105.394
The Hideout,105863420,105744222.0,"7,500",40.003, -105.412
High Energy Crag,105746063,105744222.0,"7,600",39.992, -105.417
Higher Energy Crag,105809835,105744222.0,"7,800",39.991, -105.417
Hillbilly Rocks,105810536,105744222.0,"7,000",40.005, -105.4
Hillbilly Rock  1,105746191,105810536.0,"6,995",40.004, -105.398
Hillbilly Rock 2,107978924,105810536.0,,40.005, -105.4
Hillbilly Rock 3,107979136,105810536.0,,40.005, -105.4
Huck's Fins aka Sun Dial Crag (submitted as Fin Land),108416804,105744222.0,"7,085",39.999, -105.419
Interloper Wall,107143309,105744222.0,,40.002, -105.41
Island Rock,105746859,105744222.0,"6,400",40.003, -105.36
Law of Physics Crag,106484844,105744222.0,,40.002, -105.41
Bachar's Block,106484870,106484844.0,,40.002, -105.41
Lion's Den,105746275,105744222.0,,40.002, -105.41
Little Crag,105744773,105744222.0,"5,850",40.014, -105.313
The Loft,107593735,105744222.0,,40.002, -105.41
Long Walk Rock,106281411,105744222.0,,40.009, -105.365
The Lookout,105863556,105744222.0,"7,500",40.003, -105.413
Lost Flatiron,105744593,105744222.0,"6,900",40.001, -105.393
Lost Rock,105832169,105744222.0,"7,500",39.997, -105.418
Lower Boulder Falls,105810530,105744222.0,"7,053",40.006, -105.406
Lower Dream Canyon,105810533,105744222.0,"7,134",40.007, -105.406
Berlin Wall,105746904,105810533.0,,40.008, -105.406
"Bhakti Point, Summit Knob",105832559,105810533.0,,40.007, -105.406
Chrome Dome,105746901,105810533.0,"7,340",40.007, -105.405
Critic's Block,106365508,105810533.0,"6,500",40.007, -105.406
Freedom Boulder,105861955,105810533.0,"6,500",40.006, -105.406
Krishna & Serenity Spire,105746892,105810533.0,,40.007, -105.406
Krishna West,113429491,105810533.0,"7,183",40.008, -105.406
Nickel Dome,105746895,105810533.0,,40.007, -105.406
Pin Dome,105746898,105810533.0,"7,411",40.007, -105.404
Plotinus Wall,105746889,105810533.0,"7,099",40.007, -105.406
Left Side,105811510,105746889.0,"7,149",40.007, -105.407
Middle,105811513,105746889.0,"7,084",40.007, -105.406
Right Side,105811516,105746889.0,"7,064",40.007, -105.406
Universal Crusher Rock,105810821,105810533.0,"7,018",40.007, -105.406
Wall of Winter Warmth,105746907,105810533.0,"7,277",40.007, -105.405
Mental Rock,105746841,105744222.0,"6,350",40.003, -105.364
Mind Shaft Cliff,107104128,105744222.0,"7,200",40.003, -105.41
Mindless Cliff,105746328,105744222.0,,40.002, -105.41
Mine Hole Crag,105745103,105744222.0,"7,600",39.998, -105.416
Mountain Rose,105746325,105744222.0,"8,031",39.979, -105.453
Myth Rock,105746862,105744222.0,"7,218",39.999, -105.413
Nip and Tuck,105744647,105744222.0,"7,650",39.987, -105.437
Nursing Home,105792930,105744222.0,"7,800",39.986, -105.442
One Shoe Makes It Murder,105746355,105744222.0,,40.002, -105.41
The Overlook,105746880,105744222.0,"7,900",39.98, -105.454
Poison Ivy Dome,111179997,105744222.0,"6,500",40.005, -105.394
Pop Rock,106479035,105744222.0,"7,542",39.991, -105.421
Practice Rock,105744629,105744222.0,"7,121",40.002, -105.413
Red Lyin' Slab,106159474,105744222.0,"5,850",40.008, -105.328
Retirement Rock,105790190,105744222.0,"8,000",39.985, -105.441
Road Rock,105825337,105744222.0,"7,173",40, -105.413
Roadside Boulder,112483771,105744222.0,"5,680",40.013, -105.315
Rock Island I,105862431,105744222.0,"5,593",40.014, -105.309
Rock Island II,105744778,105744222.0,"5,631",40.015, -105.312
Security Risk Massif,105810539,105744222.0,"7,350",40.005, -105.393
Higher Security Risk,105746236,105810539.0,"7,475",40.005, -105.393
Lower Security Risk,105745235,105810539.0,"7,400",40.005, -105.393
Upper Security Risk,105744623,105810539.0,"7,450",40.005, -105.393
Sentinel Slab,109520996,105744222.0,"7,000",40.002, -105.41
Sherwood Boulder,114299723,105744222.0,"6,741",40.003, -105.396
Sherwood Forest,105744573,105744222.0,"6,850",40.001, -105.396
Short Cliff w/ Three Cracks,105744611,105744222.0,,40.002, -105.388
Sleeping Beauty,105746415,105744222.0,"7,450",39.997, -105.417
Ledge One,105810547,105746415.0,"7,510",39.996, -105.417
Lost Highway Area,105810556,105746415.0,"7,424",39.997, -105.417
Main Wall,105810553,105746415.0,"7,514",39.997, -105.417
South Pillar,105810550,105746415.0,"7,607",39.996, -105.416
The Solar Dome (aka Lighthouse),105744903,105744222.0,"7,600",40.006, -105.395
Solaris,105746462,105744222.0,"7,224",40, -105.413
Spasmodic  Rock,105848070,105744222.0,"6,200",40.004, -105.366
The Sport Park,105744761,105744222.0,"8,000",39.973, -105.465
The Clock Tower,105811184,105744761.0,"8,000",39.972, -105.464
Chicken Wall,105811385,105811184.0,"8,107",39.972, -105.463
Upper Wall,105811388,105811184.0,"8,082",39.972, -105.463
Forbidden Fruit Crag,105811178,105744761.0,,39.973, -105.465
Overhung Wall,105811191,105744761.0,,39.973, -105.465
Owl Prow,105811181,105744761.0,"8,020",39.973, -105.464
Recovery Room,105811204,105744761.0,,39.973, -105.465
The Sky Cafe,105811194,105744761.0,,39.973, -105.465
Sport Park Slab,105811198,105744761.0,,39.973, -105.465
The Stone Cafe,107951333,105744761.0,"8,500",39.973, -105.465
Surprising Crag,105811170,105744761.0,"8,000",39.973, -105.463
South Face,105811377,105811170.0,"8,120",39.973, -105.463
West Face,105811380,105811170.0,,39.973, -105.463
The Visor,105811187,105744761.0,"8,164",39.973, -105.463
Stepping Stones,105744650,105744222.0,"7,632",39.987, -105.438
Stoner Slab,110037011,105744222.0,,40.002, -105.41
Sugar Crack Buttress,106159464,105744222.0,"6,225",40.005, -105.353
Sugarloaf Block,106511755,105744222.0,,40.002, -105.41
Superdeath,110957454,105744222.0,,40.002, -105.41
The Teflon Wall,105746527,105744222.0,"5,704",40.013, -105.318
Three Buffoons,105746823,105744222.0,"5,700",40.016, -105.311
Tonnere Tower,105746916,105744222.0,"6,900",40.004, -105.406
Creekside,106028722,105746916.0,"6,925",40.004, -105.407
The Garden,106028710,105746916.0,"6,950",40.004, -105.406
Northwest Face,106028734,105746916.0,"6,900",40.004, -105.406
Sport Land,106028695,105746916.0,"7,100",40.004, -105.406
Treasure Wall,106028704,105746916.0,"7,000",40.004, -105.406
Tortoise Boulder,106610756,105744222.0,,40.002, -105.41
Tower of Babel,105746427,105744222.0,"6,900",40.004, -105.407
Trespass Rock,106149810,105744222.0,"5,698",40.015, -105.321
Trout Rock,105746850,105744222.0,"7,400",39.997, -105.416
Truth or Consequences Crag aka Inca Stone,105745325,105744222.0,"6,911",40.004, -105.401
Tungsten Mine Shaft,105863507,105744222.0,"7,400",40.003, -105.413
Turtle Rock: A Crag for Kids,108182017,105744222.0,"6,332",40.004, -105.366
Unknown Crag (across from Lost Rock),106085643,105744222.0,"6,500",40.002, -105.41
Vampire Rock,105744644,105744222.0,"7,400",39.997, -105.414
The Wall of Voodoo,105746019,105744222.0,"6,929",40.002, -105.388
The Watermark,105745109,105744222.0,"7,251",39.998, -105.413
Witches' Tower,105746650,105744222.0,"6,750",40.002, -105.395
Wizard Rock,105746456,105744222.0,"7,532",39.999, -105.411
The Zoo,105744920,105744222.0,"7,508",39.999, -105.415
City of Boulder,113232833,105801420.0,"5,430",40.015, -105.269
Best Buy,112172873,113232833.0,"5,271",40.017, -105.253
Boulder Fish Observing Windows,119409470,113232833.0,"5,289",40.012, -105.26
CU Alpine Clubhouse,117133828,113232833.0,"5,365",39.992, -105.246
CU Campus,105744240,113232833.0,"5,390",40.007, -105.266
CU General Campus,106033318,105744240.0,,40.007, -105.266
Discovery Learning Center,111929454,105744240.0,"5,355",40.008, -105.262
Engineering Center,105744729,105744240.0,,40.007, -105.266
Hale Science Building,113678979,105744240.0,"5,429",40.009, -105.275
Math Building,112065636,105744240.0,"5,430",40.008, -105.264
Music Building,107926614,105744240.0,"5,430",40.007, -105.269
Old Main,108888593,105744240.0,"5,417",40.009, -105.273
UMC,113241928,105744240.0,"5,420",40.007, -105.272
Williams Village,116371590,105744240.0,"5,333",39.998, -105.251
Wolf Law Building,107619558,105744240.0,"5,379",40.001, -105.262
The Hill,118610435,113232833.0,"5,513",40.006, -105.281
Justice Center,116371777,113232833.0,"5,380",40.014, -105.288
Old Mapleton Elementary School,107303973,113232833.0,"5,456",40.02, -105.286
Pearl Street,113760054,113232833.0,"5,341",40.019, -105.276
Safeway Spires,113232864,113232833.0,"5,282",40.014, -105.259
United Methodist Church of Boulder,105929338,113232833.0,,40.015, -105.269
Eldorado Canyon SP,105744246,105801420.0,"5,807",39.932, -105.281
The Bastille,105807521,105744246.0,"5,500",39.931, -105.283
The Bastille - N Face,105744723,105807521.0,"5,961",39.931, -105.283
The Bastille - W Face,105807524,105807521.0,"5,500",39.93, -105.283
Cadillac Crag,105744844,105744246.0,"7,164",39.936, -105.291
Cartoon Crag,106635037,105744246.0,"6,103",39.93, -105.291
Continental Crag,105745855,105744246.0,"6,565",39.928, -105.287
Diamond Head,105745735,105744246.0,"7,488",39.938, -105.292
Eldorado Canyon Bouldering,106731703,105744246.0,"5,999",39.93, -105.288
Accordion Boulder,108540385,106731703.0,"8,803",39.916, -105.384
Beach Boulders,108540478,106731703.0,,39.93, -105.288
Blocks Rocks,108011945,106731703.0,,39.93, -105.288
Crank Rock,108048640,106731703.0,,39.93, -105.288
Creek Slab,108845132,106731703.0,,39.93, -105.288
Diamond Head Bouldering,106731862,106731703.0,,39.93, -105.288
East Draw,107882568,106731703.0,"5,935",39.935, -105.277
Center Ring Wall,107882600,107882568.0,"6,169",39.935, -105.278
Low Traverse Boulder,107882723,107882568.0,"5,500",39.947, -105.269
Sofa Patrol Wall,107882595,107882568.0,"6,375",39.937, -105.279
The Warm-up Blocks,107906945,107882568.0,,39.947, -105.269
Block 1,107906966,107906945.0,,39.947, -105.269
Block 2,107907455,107906945.0,,39.947, -105.269
Edge Blocks,108558834,106731703.0,,39.93, -105.288
The Freight Train Boulder,107112167,106731703.0,,39.925, -105.338
Fringe Boulder,108050390,106731703.0,,39.93, -105.288
The Gill Boulder,105992456,106731703.0,"6,084",39.931, -105.292
Hip Hop Boulder,108048695,106731703.0,,39.93, -105.288
Hobo Boulder,109924525,106731703.0,,39.93, -105.288
Horn Boulder,108540411,106731703.0,,39.93, -105.288
The Keg Boulders,119745001,106731703.0,"6,280",39.933, -105.295
Pony Keg,119082400,119745001.0,"6,281",39.933, -105.295
Ron's Keg,118999982,119745001.0,"6,275",39.933, -105.295
Mile Stone,108048669,106731703.0,,39.93, -105.288
Milton Boulder,105984750,106731703.0,"5,958",39.93, -105.287
Mitten Boulder,108540466,106731703.0,,39.93, -105.288
The Musical Boulders (aka- Eldorado Canyon Trail Boulders ),106096636,106731703.0,"5,988",39.937, -105.297
The East Egg,106672651,106096636.0,,39.94, -105.275
Lost Boulder,111675074,106096636.0,"6,124",39.933, -105.295
Musical Pinnacle,118325342,106096636.0,"6,629",39.937, -105.297
Whale Boulder (aka South Paw),106633005,106096636.0,"5,950",39.939, -105.275
Nightmare Block,114226303,106731703.0,"6,898",39.94, -105.296
Peanuts Pile,113761451,106731703.0,"6,079",39.93, -105.287
Qigong Boulder,113761474,113761451.0,"5,991",39.93, -105.287
Punk Rock,108048615,106731703.0,,39.93, -105.288
Pyramid Boulder,108050379,106731703.0,,39.93, -105.288
Redgarden Boulders,106731896,106731703.0,,39.93, -105.288
River Block,108023360,106731703.0,,39.93, -105.288
Riverside Boulder,106722492,106731703.0,"5,858",39.931, -105.284
Smitten Boulder,117382208,106731703.0,"6,001",39.93, -105.288
Splish Boulder,108540403,106731703.0,,39.93, -105.288
Water Rock,106669314,106731703.0,,39.93, -105.288
Wave Boulder,108558584,106731703.0,,39.93, -105.288
West Ridge Boulders,106731936,106731703.0,,39.93, -105.288
West World,105993190,106731703.0,,39.93, -105.288
Corridor Boulder,108006523,105993190.0,,39.93, -105.288
Germ Free Boulder,105993197,105993190.0,,39.93, -105.288
Roofus Rock,116563226,105993190.0,"6,101",39.931, -105.289
The Tasty Slab,106626832,105993190.0,,39.93, -105.288
Hawk-Eagle Ridge,105745073,105744246.0,"6,297",39.931, -105.288
Island Rock,106052432,105744246.0,,39.932, -105.281
Kloof Alcove,105745367,105744246.0,"6,399",39.932, -105.287
Millennium Crag,105746358,105744246.0,"6,400",39.929, -105.282
North Rock,105746656,105744246.0,"6,752",39.933, -105.286
Peanuts Walls,105807515,105744246.0,"6,000",39.929, -105.287
Lower Peanuts,105806998,105807515.0,"6,400",39.929, -105.287
Upper Peanuts,105744790,105807515.0,"6,800",39.929, -105.287
Petit Bastille,105746361,105744246.0,"6,155",39.93, -105.282
Physical Crag,105746641,105744246.0,,39.932, -105.281
Quartzite Crag,110275636,105744246.0,"5,500",39.931, -105.29
Redgarden Wall,105807689,105744246.0,"5,500",39.932, -105.284
Redgarden - Below Lower Ramp,105807707,105807689.0,"6,034",39.931, -105.285
Redgarden - Lumpe to the top,105807704,105807689.0,"6,000",39.932, -105.287
Redgarden - Roof Routes,105807701,105807689.0,"6,113",39.931, -105.285
Redgarden - S Buttress,105807692,105807689.0,"6,037",39.931, -105.284
Redgarden - Tower One,105807695,105807689.0,"6,785",39.932, -105.286
Redgarden - Tower Two,105807698,105807689.0,"6,252",39.931, -105.285
Rincon,105807722,105744246.0,"7,047",39.934, -105.29
Rincon - Center Route & R,105807728,105807722.0,"6,500",39.934, -105.289
Rincon - L of Center Route,105807725,105807722.0,"6,990",39.934, -105.29
The Rotwand,105746322,105744246.0,"6,040",39.933, -105.282
Secret Circle,106247956,105744246.0,"6,714",39.927, -105.295
Shirt Tail Peak,105745304,105744246.0,"7,314",39.934, -105.288
Sobo,105745723,105744246.0,"8,533",39.954, -105.3
Split Block,105745238,105744246.0,"7,461",39.937, -105.291
Supremacy Rock,105745220,105744246.0,"6,084",39.931, -105.291
The Veil,105745693,105744246.0,,39.932, -105.281
Visitor's Center,106862641,105744246.0,"5,800",39.931, -105.295
The West Ridge,105807716,105744246.0,"5,500",39.931, -105.288
Corner Stone,106957394,105807716.0,,39.931, -105.288
West Ridge - part A - Verschneidung to base,105807749,105807716.0,"5,500",39.931, -105.287
West Ridge - part B - Long John to Verschneidung,105807746,105807716.0,"6,284",39.931, -105.288
West Ridge - part C - Pony Express to Long John,105807742,105807716.0,"6,545",39.932, -105.288
West Ridge - part D - Xanadu to Pony Express,105807736,105807716.0,"6,687",39.932, -105.289
West Ridge - part E - top to Xanadu,105807733,105807716.0,"6,876",39.933, -105.289
West Ridge - part F - The Potato Chip,105745828,105807716.0,"6,000",39.931, -105.288
The Whale's Tail,105744862,105744246.0,"5,841",39.931, -105.283
The Wind Tower,105807505,105744246.0,"5,500",39.932, -105.283
Wind Tower - S Face,105807427,105807505.0,"5,500",39.931, -105.283
Wind Tower - SW Face,105744711,105807505.0,"5,899",39.932, -105.283
Eldorado Mountain,105744255,105801420.0,"7,572",39.92, -105.288
Behemoth,105958806,105744255.0,,39.92, -105.288
Buoux Montana,110219739,105744255.0,"6,500",39.903, -105.284
Big Sky Motel,110219755,110219739.0,"6,500",39.903, -105.284
The Congo,110327758,110219739.0,"7,517",39.903, -105.288
The Chimpanzee Wall,110327792,110327758.0,"7,614",39.903, -105.288
The Gorilla,110327761,110327758.0,"7,650",39.903, -105.288
"Tribal Boundaries, The Sacret Block",110327927,110327758.0,"7,548",39.903, -105.288
Main Wall,110219782,110219739.0,"6,600",39.902, -105.287
East Ridge,105746086,105744255.0,,39.92, -105.288
The Industrial Wall,105745091,105744255.0,,39.92, -105.288
Mickey Mouse Wall,105744750,105744255.0,"7,423",39.92, -105.285
Ridge 1,105745849,105744255.0,,39.92, -105.288
Ridge 2,105745804,105744255.0,,39.92, -105.288
Ridge 4,105745094,105744255.0,,39.92, -105.288
Secret Crag (aka Ridge 6),105745106,105744255.0,,39.92, -105.288
Suburbia Boulder,105746433,105744255.0,,39.92, -105.288
Warm Up Rock,108599960,105744255.0,"8,200",39.92, -105.282
Flagstaff,105744225,105801420.0,"6,313",40.001, -105.296
Alamo Ridge,110479243,105744225.0,"6,281",40, -105.295
Erasable Boulder Complex,110493340,110479243.0,"6,304",40, -105.295
The Pyramid,110479261,110479243.0,"6,252",40, -105.295
Alamo Rock,105746524,105744225.0,"6,324",40, -105.295
Amphitheater's Backside,107300500,105744225.0,,40.001, -105.296
Beer Barrel Boulder,105744868,105744225.0,"6,308",40.001, -105.297
Brown Glass Wall,107180243,105744225.0,,40.001, -105.296
Bulging Wall,107325039,105744225.0,"6,329",40, -105.295
"Candel Area, The",107326513,105744225.0,"6,273",39.999, -105.295
The Cave Hang,107326519,107326513.0,"6,251",39.999, -105.295
Fingers Boulder,108144364,107326513.0,,40, -105.295
The Jug,107328902,107326513.0,"6,287",39.999, -105.295
Lion's Den,107326550,107326513.0,,39.999, -105.295
Muffet Rock,107895714,107326513.0,,39.999, -105.295
Overhanging Prow,105746698,107326513.0,,39.999, -105.295
Sunshine Slab,107326583,107326513.0,,39.999, -105.295
The Capstan,105744726,105744225.0,"6,259",40.003, -105.295
Cloud Shadow,105744865,105744225.0,"6,243",40.003, -105.295
Cookie Jar,105746483,105744225.0,"6,093",40.005, -105.295
Crown Rock,105746516,105744225.0,"6,340",40.001, -105.296
The Dark Side,107514858,105744225.0,"6,235",40.003, -105.295
Creep Boulder,118740833,107514858.0,"6,262",40.003, -105.295
Cryptic Boulder,107507078,107514858.0,,40.001, -105.296
HOH Overhang,119425835,107514858.0,"6,233",40.003, -105.295
Incuts Overhang,119353610,107514858.0,"6,233",40.003, -105.295
Jim Hall Boulder,119353558,107514858.0,"6,233",40.003, -105.295
Miscellaneous Problems,114370425,107514858.0,"6,233",40.003, -105.295
Nook's Rock,105745409,107514858.0,"6,180",40.003, -105.295
Pawn Boulder,118737951,107514858.0,"6,262",40.003, -105.295
Slot Overhang Boulder,119353504,107514858.0,"6,233",40.003, -105.295
Stage Boulder,119353575,107514858.0,"6,233",40.003, -105.295
That Flakes It Overhang,119353625,107514858.0,"6,233",40.003, -105.295
Distant Dancer Pinnacle,105746507,105744225.0,,40.001, -105.297
Face Wall,109083646,105744225.0,"6,556",40.004, -105.299
First Overhang,105746310,105744225.0,"6,532",40.003, -105.299
The Flagstaff Amphitheatre,105746581,105744225.0,,40.003, -105.297
Forgotten Ridge,108730112,105744225.0,"6,397",40.005, -105.297
Fraggle Rocks,108270996,105744225.0,"6,433",40.003, -105.297
Front and Center Boulder,118261336,105744225.0,"6,119",40.002, -105.293
Golf Club Boulder,105745121,105744225.0,"6,230",40.003, -105.295
The Great Escape Boulder,106945006,105744225.0,,40.001, -105.296
High Boulder,113046980,105744225.0,"6,571",40.004, -105.299
Hobo Cave,106453163,105744225.0,"5,916",40.001, -105.292
Hueco Overhang Ridge,108766944,105744225.0,"6,112",40.002, -105.293
King Conquerer,105746292,105744225.0,"6,511",40.004, -105.298
Little Flatiron,105746746,105744225.0,"6,507",40.004, -105.298
Loose Flake Spire,106909245,105744225.0,,40.001, -105.296
Lower Great Ridge,119535057,105744225.0,"6,424",40.003, -105.297
Miscellaneous Valley,105746510,105744225.0,"6,268",40.001, -105.297
Monkey Traverse,105746504,105744225.0,"6,330",40.001, -105.297
Moon Rock,105746701,105744225.0,"6,589",40.004, -105.299
North Rocks,106214956,105744225.0,"6,385",40.003, -105.297
Notlim Boulder,105746602,105744225.0,,40.001, -105.296
One Arms Rocks,105746513,105744225.0,"5,500",40.001, -105.296
Overhang Wall,106148249,105744225.0,,40.003, -105.297
Panorama Rock,108078211,105744225.0,"6,033",40.005, -105.294
Pebble Boulder,105746492,105744225.0,"6,372",40.003, -105.297
Pinnacle Colada,105812046,105744225.0,"6,541",40.004, -105.299
Pratt's Rock aka Pratt's Overhang,105746289,105744225.0,,40.001, -105.297
Pumpkin Rock,107145293,105744225.0,30,40.001, -105.296
Rear-End Rock,105746788,105744225.0,,40.001, -105.296
Red Wall,105744871,105744225.0,"6,388",40.003, -105.297
Rib Boulder,107100915,105744225.0,,40.001, -105.296
Road Sign Rock,105746668,105744225.0,,40.001, -105.296
Shark's Rock,105746749,105744225.0,"6,500",40.004, -105.298
The Staircase,118714659,105744225.0,"6,105",40.002, -105.293
Three of a Kind Wall,105746578,105744225.0,,40.001, -105.296
Tombstone Spire,106747274,105744225.0,"6,544",40.004, -105.299
Trail Side Wall aka Plain View Ridge,105804730,105744225.0,"6,123",40.002, -105.293
Tree Slab,105746170,105744225.0,"6,291",40.001, -105.297
Tutorial Rock,113351730,105744225.0,"6,000",40.002, -105.298
Umbrella Tree,105745403,105744225.0,"6,333",40.001, -105.296
Upper Y Traverse,105746295,105744225.0,"6,487",40.004, -105.298
Flatirons,105797700,105801420.0,"6,469",39.983, -105.289
Central,105744237,105797700.0,"5,500",39.978, -105.29
Achean Pronouncement,105744805,105744237.0,"6,747",39.977, -105.29
Babyhorn,105745717,105744237.0,"6,384",39.975, -105.287
Backporch,105746179,105744237.0,"7,100",39.976, -105.291
Bear Canyon Bouldering,106937660,105744237.0,"6,380",39.972, -105.287
Bear Creek Spire,105745861,105744237.0,"6,313",39.973, -105.287
The Box,105746048,105744237.0,"7,145",39.975, -105.291
The Bubble,105746551,105744237.0,"6,560",39.973, -105.289
Bulge Boulder,105746761,105744237.0,,39.978, -105.29
Der Freischutz,105745223,105744237.0,"6,696",39.973, -105.289
Der Zerkle,105744684,105744237.0,"6,755",39.974, -105.288
Dino Boulders,118266712,105744237.0,"6,545",39.974, -105.288
Dinosaur Rock,105745684,105744237.0,"6,621",39.973, -105.288
Dobkin Rock,107103679,105744237.0,,39.978, -105.29
Dreadnaught,105745522,105744237.0,"7,134",39.976, -105.292
Dum,105745957,105744237.0,"7,350",39.975, -105.292
Dwarf,105746069,105744237.0,,39.978, -105.29
Elevated Boulder,108289512,105744237.0,,39.975, -105.287
Fee,105745759,105744237.0,"6,950",39.973, -105.29
Fi,105745205,105744237.0,"7,100",39.974, -105.291
Finger Flatiron,105745424,105744237.0,"7,075",39.974, -105.29
Fo,105744962,105744237.0,"7,200",39.974, -105.291
Front Porch,105745124,105744237.0,"6,750",39.977, -105.288
Fum,105745519,105744237.0,"7,270",39.975, -105.291
Gazebo,105745846,105744237.0,"6,560",39.975, -105.288
The Hand,105745241,105744237.0,"6,912",39.974, -105.289
Last Flatironette,105838191,105744237.0,,39.978, -105.29
Lost Devil,113526005,105744237.0,"6,610",39.978, -105.29
Lost Porch,105745903,105744237.0,"6,800",39.976, -105.289
Low Ball Zone,118931458,105744237.0,"6,522",39.974, -105.287
Mallory Flatironette,105745825,105744237.0,"6,780",39.974, -105.289
Mini Zerk,116575110,105744237.0,"6,511",39.974, -105.288
The North Ridge (of Dinosaur Mountain).,107849873,105744237.0,"6,000",39.977, -105.292
Northern Dinosaur Egg,105745756,105744237.0,"6,600",39.973, -105.289
Overture,105745606,105744237.0,,39.978, -105.29
Passing Me By - Boulder,118747526,105744237.0,"6,601",39.974, -105.288
Pocket Place,115438652,105744237.0,"6,133",39.976, -105.281
Red Devil,105745432,105744237.0,"6,800",39.975, -105.289
Shark's Fin,105745447,105744237.0,"6,970",39.974, -105.29
South Ridge,108220137,105744237.0,"6,200",39.972, -105.29
South Summit of Green Mountain,109556379,105744237.0,"7,860",39.975, -105.299
Southern Dinosaur Egg,105744693,105744237.0,"6,450",39.972, -105.288
Square Rock,105744687,105744237.0,"6,350",39.975, -105.286
Stonehenge,105744876,105744237.0,"6,417",39.972, -105.289
Trailside Boulder,112104710,105744237.0,"6,480",39.975, -105.287
Unicorn,105745912,105744237.0,,39.978, -105.29
North,105744231,105797700.0,"6,868",39.987, -105.293
Amoeboid,105745558,105744231.0,"6,972",39.981, -105.292
The Annex Boulder,107212675,105744231.0,,39.987, -105.293
Anomaly,105745555,105744231.0,"6,891",39.981, -105.291
Baby Giraffe,117051167,105744231.0,"7,439",39.981, -105.295
Bella Boulder,105746683,105744231.0,,39.987, -105.293
Challenger,105745397,105744231.0,,39.983, -105.295
"Deviation, Lower",106267004,105744231.0,,39.987, -105.293
"Deviation, Upper",106267020,105744231.0,,39.987, -105.293
Downclimb/Sentinel Pass,105745948,105744231.0,,39.987, -105.293
East Ironing Board,105745250,105744231.0,"7,050",39.987, -105.294
East Sentinel,108031013,105744231.0,"6,000",39.985, -105.291
Easy Street,105745951,105744231.0,,39.987, -105.293
El Primero Boulder,107212590,105744231.0,,39.987, -105.293
Eyes of the Canyon,105745543,105744231.0,,39.987, -105.293
Fifth Flatiron,105745301,105744231.0,"6,900",39.982, -105.293
The Fin,105746716,105744231.0,"7,150",39.987, -105.295
First Flatiron,105744678,105744231.0,"6,713",39.991, -105.293
First Flatironette,105746188,105744231.0,"6,675",39.992, -105.293
The Fist or Hippo Head,105745400,105744231.0,"7,531",39.981, -105.294
Fourth Flatiron,105745909,105744231.0,"7,245",39.983, -105.294
Fourth Flatironette,105745900,105744231.0,,39.978, -105.29
The Ghetto,105746158,105744231.0,,39.987, -105.292
Green Mountain Pinnacle,105745070,105744231.0,"7,264",39.984, -105.294
Green Thumb,105745678,105744231.0,"7,265",39.987, -105.295
Gregory Canyon (including The Amphitheatre),105829700,105744231.0,"6,132",39.996, -105.293
The Amphitheater,105744659,105829700.0,"6,150",39.996, -105.293
Fourth Pinnacle,105745834,105829700.0,,39.995, -105.294
Gregory Flatironette aka Fifth Pinnacle,105745843,105829700.0,"6,354",39.995, -105.295
South Amphitheater Pinnacle,106638773,105829700.0,"6,122",39.995, -105.292
Third Pinnacle,105745546,105829700.0,,39.996, -105.293
Hammerhead,105745567,105744231.0,,39.984, -105.292
Herbert Boulder,108462247,105744231.0,"6,577",39.991, -105.292
Hillbilly Rock,105744968,105744231.0,"6,950",39.98, -105.29
The Hobo,105746030,105744231.0,"7,000",39.98, -105.291
The Hourglass,105840780,105744231.0,"7,400",39.981, -105.293
Jaws,105745549,105744231.0,"7,150",39.988, -105.295
Lost Flatironette,109794459,105744231.0,"6,873",39.983, -105.292
Lost Sentinels,105746054,105744231.0,"6,777",39.985, -105.291
Macbeth,105746367,105744231.0,,39.991, -105.292
Medicine Man Boulder,107545646,105744231.0,,39.978, -105.29
Pebble World,119675758,105744231.0,"7,599",39.982, -105.295
Baked Boulder,119675986,119675758.0,"7,589",39.983, -105.295
Barbie Boulder,119675942,119675758.0,"7,637",39.982, -105.296
The Brain,119676081,119675758.0,"7,589",39.983, -105.295
Buttcheek Boulder,119676011,119675758.0,"7,630",39.983, -105.296
Chonk Arete,119676117,119675758.0,"7,640",39.983, -105.296
Dunk Tank Boulder,119676040,119675758.0,"7,650",39.982, -105.296
Middle Earth Boulder,119675854,119675758.0,"7,540",39.982, -105.295
Mother Earth Boulder,119675906,119675758.0,"7,612",39.983, -105.296
Playground Boulder,119676152,119675758.0,"7,718",39.982, -105.296
Red Sun,119676262,119675758.0,"7,858",39.983, -105.297
Sacred Boulder,119675803,119675758.0,"7,596",39.982, -105.295
Shipwreck Boulder,119676060,119675758.0,"7,746",39.982, -105.296
Slot Machine Area,119675963,119675758.0,"7,566",39.982, -105.295
Queen Anne's Head,105745328,105744231.0,"6,700",39.987, -105.292
The Regency,105745774,105744231.0,,39.982, -105.29
Roof Rock,107208975,105744231.0,,39.978, -105.29
Royal Arch,105745777,105744231.0,"6,774",39.982, -105.291
Royal Arch Trail Bouldering,118727303,105744231.0,"6,802",39.983, -105.292
Saddle Rock,105746230,105744231.0,,39.987, -105.293
Satellite Boulders,105745127,105744231.0,"6,361",39.99, -105.29
A-7 Boulder,111852435,105745127.0,"6,483",39.989, -105.291
Base of 2nd Flatiron Boulders,111852449,105745127.0,"6,428",39.989, -105.291
BBC Boulder,111852442,105745127.0,"6,500",39.989, -105.291
Dark Side Boulders/Area,111852446,105745127.0,"6,543",39.989, -105.291
Girlfriend Boulder,111852431,105745127.0,"6,463",39.989, -105.291
Misc East Boulders,111852452,105745127.0,"6,476",39.989, -105.291
The Mothership,111852438,105745127.0,"6,471",39.989, -105.291
Sputnik Boulder,111852421,105745127.0,"6,362",39.989, -105.29
Stardust Boulder,111852428,105745127.0,"6,434",39.989, -105.291
The Wave Boulder,111852425,105745127.0,"6,401",39.989, -105.29
Schmoe's Nose,105745927,105744231.0,"7,600",39.982, -105.295
Second Flatiron,105745298,105744231.0,"6,813",39.989, -105.293
Sentinel Boulders,105745945,105744231.0,,39.987, -105.293
Skunk Canyon,105874599,105744231.0,"6,681",39.978, -105.292
The Argonaut,113807698,105874599.0,"6,498",39.978, -105.29
Ridge 1 aka Stairway to Heaven,105745226,105874599.0,"6,760",39.979, -105.29
Ridge 2 aka Satan's Slab,105745229,105874599.0,"6,950",39.979, -105.291
Ridge 3 aka Angel's Way,105745232,105874599.0,"7,050",39.979, -105.292
Ridge 4 aka Mohling Arete,105746203,105874599.0,"7,150",39.979, -105.294
The Spy,105745394,105744231.0,,39.992, -105.293
Sunset Flatironette,105745780,105744231.0,,39.989, -105.295
Tangen Towers,105746239,105744231.0,"6,977",39.983, -105.293
The Thing,105745765,105744231.0,"7,181",39.985, -105.294
Third Flatiron,105744681,105744231.0,"6,739",39.987, -105.292
Third Flatironette,106641191,105744231.0,"6,472",39.988, -105.291
Tomato Rock,105745412,105744231.0,"6,156",39.989, -105.286
Two Move Rock,105745906,105744231.0,"6,735",39.984, -105.291
Upper Satellite Boulders,106634380,105744231.0,,39.987, -105.293
C. Fields Pinnacle,105745343,105744231.0,"6,550",39.986, -105.291
West Ironing Board,105745262,105744231.0,"7,275",39.986, -105.295
West Sentinel,108030992,105744231.0,"6,000",39.984, -105.291
Willy B,105745391,105744231.0,"7,370",39.984, -105.295
Woods Quarry,105745783,105744231.0,"6,434",39.985, -105.289
Yahman Boulder,107184126,105744231.0,,39.978, -105.29
The Sacred Cliffs,105744298,105797700.0,"8,013",39.981, -105.301
Cave Complex,106513724,105744298.0,"8,036",39.981, -105.301
Cuban Tower,105746569,105744298.0,,39.982, -105.302
East Green Mountain,117051109,105744298.0,"7,919",39.983, -105.299
The Main Cliffs,105745184,105744298.0,"8,057",39.982, -105.301
Namegame Rock,105745178,105744298.0,"8,052",39.982, -105.301
One Route Rock,106528773,105744298.0,"8,056",39.982, -105.301
Pebble Beach,105745181,105744298.0,"8,059",39.982, -105.301
Ramp Rock,111881651,105744298.0,"8,023",39.982, -105.302
Sunset Outcrop Block,119534745,105744298.0,"7,927",39.979, -105.301
Tunnel Tower,112293274,105744298.0,"7,873",39.977, -105.3
South,105744252,105797700.0,"7,337",39.961, -105.289
Angel's Wings aka Devil's Wings,105745768,105744252.0,"7,000",39.956, -105.291
"Angel's Wings aka Devil's Wings, West Face",106038498,105744252.0,"7,500",39.954, -105.293
The Apostle,105837336,105744252.0,,39.954, -105.285
Bongo Boulder,105744953,105744252.0,"6,227",39.971, -105.283
Chimera,107990426,105744252.0,"6,500",39.956, -105.286
Cubicle Crag,106034451,105744252.0,"7,500",39.961, -105.289
Damascus,107989041,105744252.0,"6,000",39.953, -105.286
Devil's Advocate,105836705,105744252.0,"7,000",39.954, -105.286
Devil's Horns,106038473,105744252.0,"7,500",39.953, -105.291
Devil's Pinkie (AKA South Pinnacle),108998404,105744252.0,"7,000",39.968, -105.29
Devil's Thumb,105745247,105744252.0,"7,807",39.952, -105.29
Fatiron,105745406,105744252.0,,39.951, -105.287
Fern Canyon,105874737,105744252.0,"7,000",39.965, -105.289
Black Ice Boulder,119649338,105874737.0,"6,721",39.965, -105.286
Broken Egg,115123991,105874737.0,"6,864",39.966, -105.287
East Ridge,105745429,105874737.0,"7,400",39.967, -105.289
Fern Canyon Bouldering,109121060,105874737.0,"6,950",39.964, -105.287
Fiddlehead,105745295,105874737.0,"7,250",39.966, -105.289
Mars Block,107156765,105874737.0,"8,200",39.966, -105.292
Mentor Boulder,109767168,105874737.0,"7,297",39.965, -105.291
Nebel Horn Ridge,105745415,105874737.0,"7,535",39.966, -105.291
Northern Egg,115124006,105874737.0,"6,972",39.967, -105.287
Onoclea,105745289,105874737.0,"7,360",39.966, -105.29
Pellaea,105745139,105874737.0,"7,217",39.966, -105.29
Southern Goose Egg,105745421,105874737.0,"6,940",39.966, -105.287
Superfresh Boulder,107747923,105874737.0,"6,400",39.965, -105.286
First Advisor,107189632,105744252.0,"7,300",39.965, -105.29
Flying Flatiron,105746027,105744252.0,,39.953, -105.288
Forgotten Flatiron aka Icarus,113430701,105744252.0,"6,948",39.952, -105.286
The Goose,105744620,105744252.0,"7,380",39.967, -105.288
Harmon Flatironette,107960540,105744252.0,"6,600",39.97, -105.287
Harmon's East,107960552,105744252.0,"6,000",39.97, -105.286
Isolation Rock,106034475,105744252.0,"7,600",39.961, -105.289
Jamcrack Spire,105746707,105744252.0,"6,947",39.949, -105.286
The Keel,105839199,105744252.0,"7,000",39.958, -105.289
Lost And Found,105746719,105744252.0,"7,800",39.943, -105.291
Madein Boulder,113430199,105744252.0,"6,835",39.95, -105.286
The Maiden,105745076,105744252.0,"7,315",39.95, -105.287
Major Maroon Boulder,105746200,105744252.0,,39.961, -105.289
The Matron,105744859,105744252.0,"6,813",39.943, -105.288
Medusa,107993423,105744252.0,"6,000",39.956, -105.286
Overhang Rock,105745115,105744252.0,"6,659",39.971, -105.287
Pegasus,111256760,105744252.0,"7,000",39.957, -105.287
The Penguin,107626759,105744252.0,,39.961, -105.289
Poot Ridge,112000277,105744252.0,"6,690",39.971, -105.289
The Pup,106676588,105744252.0,"6,862",39.969, -105.287
Pyramid,106038038,105744252.0,"7,500",39.961, -105.289
The Rudder,112248916,105744252.0,"7,432",39.959, -105.29
Saqqara,106048972,105744252.0,"7,500",39.961, -105.289
Seal Rock,105745265,105744252.0,"7,228",39.968, -105.288
Second Advisor,107189934,105744252.0,"7,400",39.964, -105.29
Shadowfax,106034447,105744252.0,"7,500",39.961, -105.289
Shanahan Crag,105745370,105744252.0,,39.961, -105.289
The Sibling,105746725,105744252.0,"7,191",39.944, -105.29
The Slab,105745364,105744252.0,"7,000",39.963, -105.287
The Sphinx,105746590,105744252.0,,39.958, -105.287
Sunset Wall,106034494,105744252.0,"7,500",39.961, -105.289
Terrain Boulders (aka Droegerland),105745043,105744252.0,"6,622",39.961, -105.283
Third Advisor,107189949,105744252.0,"7,400",39.964, -105.289
Tiny Tower,105745819,105744252.0,,39.961, -105.289
Toddler Rock,105746722,105744252.0,,39.961, -105.289
Tower Of The Moon,105746704,105744252.0,,39.961, -105.289
Unknown Rock,107143690,105744252.0,"7,122",39.968, -105.295
Upper Blues Boulders,105984830,105744252.0,,39.955, -105.282
Atom Boulder,105984874,105984830.0,,39.961, -105.289
Mamoonious,105984840,105984830.0,,39.961, -105.289
Zoofarsus,105984877,105984830.0,,39.961, -105.289
X Crack Boulder,107730806,105744252.0,"5,745",39.943, -105.263
Mount Sanitas,105744361,105801420.0,"6,105",40.027, -105.301
Classy Wall,105746530,105744361.0,,40.023, -105.299
Corner Rock,105746536,105744361.0,,40.023, -105.299
Hawthorn Block,106936305,105744361.0,"6,000",40.036, -105.297
Kamakazi Boulder,105974519,105744361.0,,40.027, -105.301
Lower Fin,105746137,105744361.0,,40.023, -105.298
North Shelf Block,105746134,105744361.0,,40.022, -105.298
Red Rocks (Boulder),105746418,105744361.0,"5,728",40.017, -105.297
Ridge Gap Wall,105746533,105744361.0,,40.024, -105.299
Sanitas Proper,106468098,105744361.0,,40.022, -105.298
South Shelf Block,105746659,105744361.0,,40.022, -105.298
Turd Boulder aka Leaning Boulder,105746767,105744361.0,,40.027, -105.301
Upper Fin,106140395,105744361.0,,40.023, -105.298
Upper Dream Canyon,105744234,105801420.0,"7,500",40.01, -105.407
Bat Cove,106348830,105744234.0,"7,223",40.007, -105.41
Candle Stick Crag,106353784,105744234.0,"7,500",40.01, -105.407
The Chamber,106367962,105744234.0,"6,500",40.01, -105.407
Classic Cliff,105831265,105744234.0,,40.01, -105.407
Dream Dome,105744665,105744234.0,"7,353",40.01, -105.409
The Greenhouse,105831287,105744234.0,,40.01, -105.407
The Icon,105744873,105744234.0,"7,306",40.01, -105.409
Jessica's Block,106347449,105744234.0,,40.01, -105.407
Lost Angel,105744668,105744234.0,"7,246",40.009, -105.41
Midnight Rock,105744674,105744234.0,"7,269",40.008, -105.409
Oceanic Wall,105744662,105744234.0,"7,325",40.01, -105.409
The Spider's Den,105847114,105744234.0,,40.01, -105.407
The Steeple,106378811,105744234.0,"6,500",40.01, -105.407
The Terrace,105746197,105744234.0,,40.01, -105.407
Thunder Point,105746066,105744234.0,,40.01, -105.409
Touch of Grey Slabs,106367993,105744234.0,"6,500",40.01, -105.407
Turtle Dome,106367934,105744234.0,"6,500",40.01, -105.407
Universal Crag,105746498,105744234.0,,40.01, -105.407
Vanishing Point,105744677,105744234.0,"7,220",40.008, -105.408
Water Slabs,105744671,105744234.0,,40.01, -105.407
Breckenridge,108289116,105708956.0,"9,600",39.492, -106.05
-,109258004,108289116.0,"9,961",39.498, -106.073
The Peak 9 Boulder,108292648,108289116.0,"12,000",39.453, -106.102
Raspberry Boulders,108289128,108289116.0,"9,600",39.491, -106.05
Buena Vista,105744391,105708956.0,"7,955",38.839, -106.133
A Wonderful World,115401058,105744391.0,"8,726",38.859, -106.109
Almost A Tunnel,105865521,105744391.0,"8,120",38.881, -106.149
American Wall,105932493,105744391.0,,38.839, -106.133
Below The Arch Crag,106225047,105744391.0,,38.839, -106.133
Billy's Buttress,105865246,105744391.0,,38.839, -106.133
Bob's Rock,105746480,105744391.0,"8,143",38.884, -106.15
Bottom of the Staircase,115366760,105744391.0,"7,505",38.675, -106.047
Brown's Canyon National Monument,110673274,105744391.0,"7,000",38.753, -106.028
Hecla Junction,110838834,110673274.0,"7,400",38.639, -106.053
Logjam Wall,111061744,110673274.0,"7,526",38.688, -106.046
Staircase Towers,110883626,110673274.0,"8,247",38.683, -106.031
Bullet Review Rock,105972087,105744391.0,,38.839, -106.133
Buzzsaw Dome,119900241,105744391.0,"8,878",38.894, -106.106
Cascade Boulders,106796618,105744391.0,"9,000",38.712, -106.247
Castle Rock Gulch,112179368,105744391.0,"9,306",38.804, -105.954
A Nice Dome,112179422,112179368.0,"9,300",38.804, -105.953
Sunset Domes,117856948,112179368.0,"9,369",38.794, -105.947
Sunset Boulders,117857092,117856948.0,"9,254",38.794, -105.948
Lizard Head,117857124,117857092.0,"9,243",38.794, -105.948
Three's a Crowd,117857367,117857092.0,"9,291",38.794, -105.948
Cat's Claw Crag (C3),107425263,105744391.0,"9,052",38.848, -106.06
Chalk Creek Boulder aka Boulder of Sorrow,105892485,105744391.0,"9,000",38.716, -106.235
Chief's Head,106412715,105744391.0,"8,000",38.839, -106.133
Chocolate Tower,106195550,105744391.0,"8,000",38.876, -106.146
Christmas Crag,108619260,105744391.0,"8,000",38.899, -106.092
Climbing Area 53,118573681,105744391.0,"8,414",38.853, -106.117
Climbing Area 54,118579715,105744391.0,"9,177",38.848, -106.106
Climbing Area 55,118588372,105744391.0,"9,332",38.847, -106.104
Climbing Area 56,118650663,105744391.0,"8,299",38.855, -106.124
Climbing Area 57,118690195,105744391.0,"9,005",38.895, -106.14
Climbing Area 58,119397837,105744391.0,"8,086",38.867, -106.141
Climbing Area 60,119800799,105744391.0,"8,511",38.857, -106.124
Climbing Area 61,119819164,105744391.0,"8,560",38.857, -106.124
Climbing Area 62,119831191,105744391.0,"8,701",38.856, -106.117
Climbing Area 63,119960361,105744391.0,"8,478",38.856, -106.119
Coaldale,116794425,105744391.0,"6,518",38.362, -105.733
Davis Face,105854031,105744391.0,"9,674",38.916, -106.104
Day Dream Crag,113866214,105744391.0,"9,100",38.855, -106.111
Downtown Boulders,106484882,105744391.0,"8,000",38.844, -106.12
Buena Vista Boulder Garden,106545215,106484882.0,"8,000",38.844, -106.12
Park Boulder,106484887,106484882.0,"8,000",38.844, -106.12
Duck Wall,119418154,105744391.0,"8,549",38.901, -106.145
Elephant Rock,105746486,105744391.0,"8,111",38.885, -106.152
Forgotten Wall,119836264,105744391.0,"8,108",38.882, -106.149
The Granite Block,108061877,105744391.0,"9,000",39.04, -106.263
Holy Water Wall,105971598,105744391.0,"10,000",38.812, -106.35
KOA Campground Boulders,114514242,105744391.0,"7,984",38.819, -106.094
The Leaning Wall,106536061,105744391.0,"8,000",38.88, -106.147
Lilliput,119099195,105744391.0,"9,204",38.855, -106.026
Obscura,119099238,119099195.0,"9,171",38.855, -106.026
Small Packages,119337601,119099195.0,"9,075",38.853, -106.027
Loaf of Bread & Bun (in the Land of Crank),108152259,105744391.0,"8,300",38.839, -106.133
London Gray,119930005,105744391.0,"9,641",38.712, -106.307
The Milt Wall,107042797,105744391.0,,38.839, -106.133
The Museum,115401861,105744391.0,"8,145",38.874, -106.134
Nathrop Blocks,109135042,105744391.0,"7,682",38.756, -106.076
Aloe Vera Boulder,111958439,109135042.0,"7,683",38.757, -106.076
Buckets Boulder,112124483,109135042.0,"7,765",38.761, -106.076
The Buena Boulder,105746260,109135042.0,,38.757, -106.075
Butler Block,109135198,109135042.0,"7,681",38.756, -106.075
Maiden Block,109135169,109135042.0,"7,682",38.756, -106.075
Nathrop Cube,109135046,109135042.0,"7,682",38.757, -106.076
Raft Block,109135223,109135042.0,"7,683",38.756, -106.075
Sleeper Block,111958604,109135042.0,"7,706",38.758, -106.076
Spearhead Boulder,112124203,109135042.0,"7,737",38.762, -106.076
Warm-Up Boulder,112124384,109135042.0,"7,695",38.76, -106.076
On The Hill,117101334,105744391.0,"8,971",38.92, -106.122
Pleasure Dome,105855795,105744391.0,,38.9, -106.14
Poncho's Vista,105966652,105744391.0,"8,167",38.879, -106.147
Pump Station,105949220,105744391.0,"8,451",38.953, -106.192
Rabbit Ridge,120028599,105744391.0,"13,075",38.914, -106.303
The Ridge,115424953,105744391.0,"11,043",38.936, -106.117
The Spines,115459960,115424953.0,"11,162",38.937, -106.117
The Wall,115458940,115424953.0,"11,047",38.936, -106.117
